# Date-Time   TempBMP180   PressBMP180   AltBMP180   Sealevel_PressBMP180   TempSH1   TempSH2   PressSH   HumSH   Bx   By   Bz   MF   Ax   Ay   Az   Acc   Gx   Gy   Gz   Gyr   pitch   roll   yaw   uv_raw   risk_level   cputemp   cpu_percent   mem_total   mem_available   mem_used   mem_free   mem_percent   disk_total   disk_used   disk_free   disk_percent 
2019-03-10 08:04:59 26.6000 84124.0000 1541.5596 84132.0000 0.0000 22.5707 0.0000 58.2951 -13.3184 -21.8656 -2.5109 25.7253 -0.0111 0.0388 -1.0099 1.0107 2.925 -0.3431 -8.2032 8.7158 358.3789 178.3734 222.5265 0.0000 LOW
2019-03-10 08:05:02 26.6000 84126.0000 1541.2693 84122.0000 26.6000 22.9143 841.1700 57.9650 -62.8914 -58.385 -5.1066 85.9664 -0.0141 0.0381 -0.988 0.9888 -0.4971 -1.8399 -3.6717 4.1369 359.3547 178.0965 222.4287 0.0000 LOW
2019-03-10 08:05:05 26.6000 84137.0000 1541.2693 84137.0000 26.6000 22.8952 841.1700 58.1209 -65.9794 -60.6916 -5.9835 89.8474 -0.0123 0.0371 -0.9877 0.9885 -1.908 -3.3251 2.7832 4.7374 0.0458 177.9809 222.3364 0.0000 LOW
2019-03-10 08:05:07 26.6000 84118.0000 1541.8500 84123.0000 59.0000 22.9143 920.1000 57.8121 -65.9858 -63.0427 -6.2277 91.4729 -0.0126 0.0437 -0.9947 0.9957 21.4879 12.545 14.3152 28.7060 0.5535 178.4837 222.1791 0.0000 LOW
2019-03-10 08:05:10 26.6000 84103.0000 1545.1414 84130.0000 59.0000 22.7807 920.1000 57.9161 -62.4413 -61.9867 -8.4114 88.3856 -0.6166 -0.0241 -0.8349 1.0382 44.7673 -309.7816 -230.5175 388.7249 350.7289 170.6572 213.0996 0.0000 LOW
2019-03-10 08:05:12 26.6000 84126.0000 1541.8500 84123.0000 59.0000 22.9143 920.0100 57.5554 -45.0639 -58.5754 -6.1719 74.1615 -0.4648 0.077 -0.8511 0.9728 19.7973 23.4593 1.254 30.7221 345.8552 167.4158 218.5141 0.0000 LOW
2019-03-10 08:05:14 26.6000 84164.0000 1536.7215 84179.0000 59.0000 22.9907 920.0100 57.5951 -42.5541 -55.4345 -3.4905 69.9716 -0.334 0.8112 -0.6349 1.0829 1212.0454 326.9037 -244.0083 1278.8511 26.4605 244.024 212.9836 0.0000 LOW
2019-03-10 08:05:17 26.6000 84134.0000 1541.1725 84132.0000 59.1000 22.9334 920.3800 56.8615 -58.2864 -46.9902 -10.6179 75.6183 -0.2397 -0.8276 -0.5869 1.0425 225.2236 6.1713 258.7759 343.1162 47.4252 263.752 239.8781 0.0000 LOW
2019-03-10 08:05:19 26.6000 84109.0000 1544.8509 84089.0000 59.1000 22.9334 920.3800 58.2981 -68.3886 -34.1589 -11.6385 77.3258 0.1981 0.0758 -0.8511 0.8771 45.0184 -94.6215 -153.68 186.0038 21.0258 230.782 196.3624 0.0000 LOW
2019-03-10 08:05:21 26.6000 84102.0000 1543.3987 84118.0000 58.9000 22.9525 919.8300 57.9802 -69.2397 -37.0979 -7.3239 78.8925 0.2538 -0.1098 -0.9795 1.0178 -72.8293 -2.4808 -90.7984 116.4243 29.308 204.9168 183.9037 0.0000 LOW
2019-03-10 08:05:24 26.6000 84087.0000 1545.4318 84103.0000 58.9000 23.0098 919.7900 57.5951 -68.1256 -38.2239 -6.3831 78.3767 -0.2241 0.0129 -1.0005 1.0254 -27.3199 91.5546 55.4847 110.4861 317.3382 189.3216 221.0367 0.0000 LOW
2019-03-10 08:05:26 26.6000 84123.0000 1541.5596 84121.0000 59.0000 23.0289 919.7900 57.9589 -61.6594 -39.9571 -2.055 73.5029 -0.2409 0.1692 -0.9424 0.9873 -54.6244 -219.1376 -21.9249 226.9049 341.6574 184.3464 206.7919 0.0000 LOW
2019-03-10 08:05:28 26.6000 84125.0000 1541.7532 84125.0000 26.6000 22.9716 841.1900 58.0078 -61.5864 -41.8923 0.4175 74.4851 -0.3495 0.1255 -0.8814 0.9564 121.2937 -570.3851 -194.4943 614.7189 6.7553 193.3193 211.8932 0.0000 LOW
2019-03-10 08:05:31 26.6000 84127.0000 1541.8500 84125.0000 26.6000 23.0480 920.0400 58.3043 -59.6522 -42.3766 4.408 73.3048 -0.271 0.1432 -0.9665 1.0139 25.9988 114.3948 37.002 123.0092 343.5774 195.5903 209.1978 0.0000 LOW
2019-03-10 08:05:33 26.6000 84125.0000 1541.3661 84121.0000 59.0000 22.9143 920.0400 57.7051 -54.4342 -44.213 9.7417 70.8009 -0.1456 0.1034 -0.9263 0.9434 -28.1994 -35.735 42.0996 62.0046 340.4415 199.3452 209.8765 0.0000 LOW
2019-03-10 08:05:35 26.6000 84124.0000 1541.5596 84122.0000 26.6000 23.0289 841.1700 58.7322 -53.9853 -40.9248 10.03 68.4825 -0.1535 0.0617 -0.9689 0.9829 48.0466 19.5852 9.4103 52.7315 11.0064 174.838 191.148 0.0000 LOW
2019-03-10 08:05:38 26.6000 84125.0000 1543.3019 84109.0000 26.6000 23.0480 841.1700 57.5859 -57.6249 -40.6395 9.8623 71.2002 -0.1093 0.1134 -0.9701 0.9828 6.2878 -97.0493 -29.1902 101.5390 12.078 178.7846 193.7208 0.0000 LOW
2019-03-10 08:05:40 26.6000 84124.0000 1542.2372 84123.0000 59.0000 22.9716 920.0400 58.0536 -59.0006 -37.4283 8.8645 70.4310 0.008 -0.0106 -1.0068 1.0069 -1.2505 23.3678 -25.1851 34.3789 20.5038 173.2679 185.451 0.0000 LOW
2019-03-10 08:05:42 26.6000 84121.0000 1542.1404 84119.0000 59.0000 23.1053 920.0400 57.7663 -60.1254 -38.4478 10.4288 72.1253 -0.1575 0.1403 -0.9863 1.0086 -109.5067 -3.4401 47.7221 119.5029 15.3287 166.0942 188.4943 0.0000 LOW
2019-03-10 08:05:45 26.6000 84120.0000 1542.7211 84122.0000 59.0000 22.9907 920.0700 57.9497 -58.4602 -42.984 10.2241 73.2786 -0.0032 0.0879 -0.982 0.9859 112.8217 -22.6305 36.5584 120.7369 359.3619 180.7158 205.191 0.0000 LOW
2019-03-10 08:05:47 26.6000 84118.0000 1542.5275 84128.0000 59.0000 23.1053 920.1400 58.0230 -60.1346 -42.7258 8.3623 74.2401 -0.0916 0.0775 -1.0485 1.0553 31.4881 32.1073 -68.1356 81.6385 355.7728 186.0405 209.005 0.0000 LOW
2019-03-10 08:05:49 26.6000 84118.0000 1541.5596 84128.0000 59.0000 23.0671 920.1400 57.9955 -60.7043 -40.4086 6.9577 73.2549 -0.0538 0.0175 -0.9576 0.9593 250.1791 -100.1764 383.9047 469.0498 5.1429 225.1174 214.4179 0.0000 LOW
2019-03-10 08:05:52 26.6000 84130.0000 1540.7854 84128.0000 59.0000 23.0862 920.1400 57.7449 -60.0034 -38.3485 -2.3908 71.2512 -0.5188 0.2316 -0.8197 0.9973 -51.3032 -298.4384 6.479 302.8852 8.7299 216.5106 214.512 0.0000 LOW
2019-03-10 08:05:54 26.6000 84124.0000 1541.0757 84116.0000 59.0000 23.0480 920.0700 57.5401 -54.341 -37.3629 -3.3361 66.0308 -0.1395 0.017 -0.8696 0.8809 -4.896 254.9376 -64.386 262.9880 353.9919 242.0339 209.5485 0.0000 LOW
2019-03-10 08:05:56 26.6000 84149.0000 1539.4306 84142.0000 59.0000 23.1625 920.0700 57.8977 -64.6852 -34.4316 -1.1038 73.2866 -0.0674 -0.0962 -1.0316 1.0383 61.3204 19.2999 -43.1141 77.4048 316.175 218.438 224.1932 0.0000 LOW
2019-03-10 08:05:59 26.6000 84118.0000 1541.8500 84134.0000 59.0000 23.0671 920.2900 57.9497 -68.0177 -36.0599 -1.0982 76.9931 -0.1479 0.0146 -1.0029 1.0139 -47.2032 -363.1659 6.0327 366.2704 339.4645 201.6171 232.9692 0.0000 LOW
2019-03-10 08:06:01 26.6000 84131.0000 1541.6564 84125.0000 59.0000 23.1243 920.2000 57.6562 -68.1997 -35.0496 0.3304 76.6797 -0.2073 0.0296 -0.9588 0.9814 0.5307 24.1535 12.5466 27.2230 345.4967 199.5253 225.6868 0.0000 LOW
2019-03-10 08:06:03 26.6000 84139.0000 1541.7532 84125.0000 59.0000 23.1243 920.2000 57.4270 -66.6445 -33.6434 0.1388 74.6551 -0.1753 0.0194 -1.0429 1.0577 -1.0548 -20.6012 21.738 29.9677 353.831 196.677 221.7069 0.0000 LOW
2019-03-10 08:06:06 26.6000 84114.0000 1543.1083 84115.0000 26.6000 23.0480 841.1400 57.7938 -66.7945 -33.1743 1.097 74.5871 -0.1461 0.0486 -0.9554 0.9677 -8.233 -7.1196 -26.6317 28.7701 358.3153 195.8951 214.3491 0.0000 LOW
2019-03-10 08:06:08 26.4000 84127.0000 1545.6255 84129.0000 26.6000 23.1434 920.1700 57.8305 -67.8037 -32.6908 -0.2971 75.2736 -0.0276 0.0121 -0.9839 0.9844 2.5629 -5.9884 6.4272 9.1509 1.8058 193.3292 211.4585 0.0000 LOW
2019-03-10 08:06:11 26.6000 84130.0000 1541.7532 84130.0000 59.0000 23.1243 920.1700 57.3200 -70.3911 -32.3947 -0.2112 77.4879 -0.0212 0.0073 -0.9868 0.9871 -3.7175 -8.7782 4.5183 10.5495 3.2486 189.7804 210.2586 0.0000 LOW
2019-03-10 08:06:13 26.6000 84127.0000 1541.7532 84122.0000 26.6000 23.1053 841.1700 57.7021 -70.6213 -32.151 -1.3837 77.6078 -0.0225 0.0078 -0.9873 0.9876 5.3594 -2.1911 3.6904 6.8661 2.3614 188.5076 208.2168 0.0000 LOW
2019-03-10 08:06:15 26.6000 84127.0000 1542.2372 84134.0000 26.6000 23.0671 920.2000 57.5095 -70.374 -32.2034 -0.9095 77.3976 -0.0262 0.01 -1.049 1.0494 1.0863 -1.4014 2.3428 2.9381 1.5007 187.2478 206.3823 0.0000 LOW
2019-03-10 08:06:18 26.6000 84127.0000 1542.2372 84133.0000 59.0000 23.2007 920.2000 58.0353 -70.6268 -32.027 -1.3574 77.5610 -0.0114 0.0053 -0.9863 0.9864 1.4732 -2.3708 -1.0497 2.9821 0.4052 186.5793 204.9685 0.0000 LOW
2019-03-10 08:06:20 26.6000 84121.0000 1541.2693 84127.0000 26.6000 23.1816 841.2500 57.7632 -70.2611 -31.8934 -1.1051 77.1689 -0.0141 0.0061 -0.9873 0.9874 1.1807 2.4158 5.8939 6.4783 0.4758 185.5271 204.2786 0.0000 LOW
2019-03-10 08:06:22 26.6000 84132.0000 1541.4629 84123.0000 26.6000 23.1053 841.2500 57.6073 -70.2899 -31.962 -0.5545 77.2175 -0.0136 0.0039 -0.9865 0.9866 5.7041 1.2618 4.1016 7.1381 0.3314 184.4884 203.9873 0.0000 LOW
2019-03-10 08:06:25 26.6000 84123.0000 1541.3661 84124.0000 59.0000 23.1053 920.2000 57.2528 -70.4687 -31.9809 -1.0207 77.3929 -0.016 0.0027 -0.9875 0.9876 0.814 2.4536 3.8656 4.6503 0.065 183.973 203.5892 0.0000 LOW
2019-03-10 08:06:27 26.6000 84133.0000 1541.7532 84131.0000 59.0000 23.1243 920.2000 57.7479 -70.6015 -31.8461 -0.8043 77.4557 -0.0148 0.0039 -0.987 0.9871 3.0595 1.6634 0.9716 3.6154 359.7434 183.2077 203.5646 0.0000 LOW
2019-03-10 08:06:29 26.6000 84126.0000 1541.9468 84130.0000 59.0000 23.0480 920.2600 57.5829 -70.6907 -31.58 -0.8697 77.4289 -0.0163 0.0051 -0.9868 0.9869 -1.0905 -0.1533 4.7243 4.8509 359.9997 182.6129 203.4148 0.0000 LOW
2019-03-10 08:06:32 26.6000 84123.0000 1541.7532 84123.0000 59.0000 23.0671 920.1700 57.2558 -70.5927 -31.5317 -0.0365 77.3148 -0.0133 0.0046 -0.9873 0.9874 0.7778 1.0934 1.9159 2.3391 359.8924 182.3606 203.1556 0.0000 LOW
2019-03-10 08:06:34 26.6000 84122.0000 1541.1725 84123.0000 59.0000 23.1816 920.1700 58.2187 -70.2672 -32.4235 -0.7094 77.3903 -0.0136 0.0029 -0.9873 0.9874 1.4242 -1.8991 0.3151 2.3946 0.2281 181.9417 203.052 0.0000 LOW
2019-03-10 08:06:36 26.6000 84129.0000 1541.7532 84138.0000 59.0000 23.0862 920.2000 57.6318 -70.3739 -32.3415 -0.5789 77.4519 -0.0099 0.0029 -0.9873 0.9874 2.9944 0.1865 5.2329 6.0320 0.2109 181.8436 203.1493 0.0000 LOW
2019-03-10 08:06:39 26.6000 84124.0000 1541.9468 84124.0000 59.0000 23.1625 920.2000 57.9802 -70.021 -32.0713 -0.7458 77.0199 -0.0123 0.0058 -0.9868 0.9869 2.7718 1.8794 3.9019 5.1420 0.4927 181.1478 203.1865 0.0000 LOW
2019-03-10 08:06:41 26.6000 84126.0000 1542.3340 84130.0000 26.6000 23.2580 841.2000 57.5340 -70.2605 -31.5383 -0.7208 77.0177 -0.0052 0.0017 -0.9873 0.9873 0.1928 2.7432 2.4542 3.6858 0.2484 181.0225 203.4543 0.0000 LOW
2019-03-10 08:06:43 26.6000 84124.0000 1540.9789 84121.0000 26.6000 23.1625 920.2600 57.3842 -69.9717 -31.8039 -0.9027 76.8657 -0.0091 0.0041 -1.0485 1.0485 -0.6895 -1.5934 -0.0281 1.7364 1.1049 180.26 204.0136 0.0000 LOW
2019-03-10 08:06:46 26.6000 84121.0000 1541.6564 84117.0000 59.0000 23.1053 920.2600 58.0597 -70.0723 -32.0017 -1.3369 77.0456 -0.0096 0.0019 -0.9877 0.9877 -0.7116 0.2833 -1.4377 1.6290 1.2277 180.2551 204.1088 0.0000 LOW
2019-03-10 08:06:48 26.6000 84127.0000 1541.0757 84127.0000 26.6000 23.1243 841.2000 56.4978 -69.9389 -31.7794 -0.6918 76.8236 -0.0099 0.0029 -0.9885 0.9886 0.5861 -0.5939 1.4071 1.6359 1.0049 180.5091 204.1908 0.0000 LOW
2019-03-10 08:06:50 26.6000 84132.0000 1542.2372 84130.0000 26.6000 23.1816 920.2600 57.6226 -69.9573 -31.9457 -0.8092 76.9104 -0.0109 0.0036 -0.986 0.9861 2.3006 -2.4356 -0.4589 3.3816 0.9482 180.3595 204.1552 0.0000 LOW
2019-03-10 08:06:53 26.6000 84120.0000 1541.6564 84149.0000 59.0000 23.2389 920.2600 57.5645 -70.1857 -32.0434 -1.6464 77.1720 -0.0094 0.0036 -0.9887 0.9888 -0.1091 0.3943 0.2993 0.5069 0.9712 180.4606 204.2409 0.0000 LOW
2019-03-10 08:06:55 26.6000 84129.0000 1542.0436 84130.0000 26.6000 23.2198 841.2800 58.0444 -70.5016 -31.4654 -0.3912 77.2056 -0.0099 0.0032 -0.9868 0.9869 -2.5811 -1.1789 -1.2039 3.0824 0.7023 180.5085 204.151 0.0000 LOW
2019-03-10 08:06:57 26.6000 84124.0000 1541.7532 84124.0000 26.6000 23.3153 841.2800 57.7235 -69.8766 -32.0061 -1.3779 76.8702 -0.0101 0.0029 -0.9877 0.9878 -0.4651 1.5253 2.6527 3.0951 0.3996 180.3087 204.013 0.0000 LOW
2019-03-10 08:07:00 26.6000 84122.0000 1542.3340 84116.0000 59.0000 23.3344 920.1000 57.4912 -70.5056 -31.6936 -1.6019 77.3181 -0.0002 -0.0022 -0.9844 0.9844 5.149 42.5784 -3.4083 43.0238 357.9215 181.358 203.6272 0.0000 LOW
2019-03-10 08:07:02 26.6000 84146.0000 1540.3983 84142.0000 59.0000 23.2771 920.3200 57.7357 -70.7271 -31.3201 -2.5373 77.3932 -0.0928 -0.0099 -0.9766 0.9810 68.6283 -270.6205 294.3885 405.7214 32.5534 183.3595 119.202 0.0000 LOW
2019-03-10 08:07:04 26.6000 84123.0000 1542.2372 84126.0000 59.0000 23.1816 920.3200 57.6348 -65.9372 -29.4121 -4.883 72.3646 -0.0486 -0.0294 -0.9817 0.9833 -7.8114 56.2365 186.8522 195.2878 22.6093 185.5317 133.3851 0.0000 LOW
2019-03-10 08:07:07 26.6000 84123.0000 1541.3661 84130.0000 59.0000 23.2389 920.3200 57.6776 -65.8507 -28.0305 -4.3898 71.7028 -0.037 -0.0179 -0.9263 0.9272 0.5469 -3.4681 -1.3349 3.7562 19.0074 186.8425 148.8999 0.0000 LOW
2019-03-10 08:07:09 26.6000 84126.0000 1541.3661 84128.0000 59.0000 23.2198 920.2000 57.1305 -64.3251 -26.8998 -3.7325 69.8230 -0.0528 -0.0096 -0.9865 0.9880 58.1919 62.617 17.8139 87.3185 21.3965 183.2952 167.2884 0.0000 LOW
2019-03-10 08:07:11 26.6000 84126.0000 1542.2372 84127.0000 59.0000 23.2771 920.2000 58.3348 -64.5136 -26.7372 -4.5211 69.9809 -0.0336 -0.0203 -0.9263 0.9271 -1.9122 -5.2581 1.036 5.6901 17.7832 183.8098 174.8437 0.0000 LOW
2019-03-10 08:07:13 26.6000 84126.0000 1538.6565 84128.0000 59.0000 23.2007 920.2000 57.4300 -64.3265 -25.8389 -4.3858 69.4607 -0.0328 -0.0205 -0.9863 0.9871 -1.2853 -5.3793 1.3897 5.7026 14.8012 183.5676 180.3104 0.0000 LOW
2019-03-10 08:07:16 26.6000 84127.0000 1541.7532 84128.0000 59.0000 23.1625 920.2000 57.5951 -64.1924 -25.7844 -4.607 69.3305 -0.0291 -0.0193 -0.9827 0.9833 -5.735 -11.3963 2.6262 13.0255 11.218 183.7027 185.0147 0.0000 LOW
2019-03-10 08:07:18 26.6000 84129.0000 1541.2693 84126.0000 59.0000 23.2389 920.2000 57.5615 -64.6301 -25.7072 -3.3341 69.6349 -0.0383 -0.0222 -0.9858 0.9868 -2.0948 -4.1067 -1.8207 4.9566 9.7088 183.0118 188.0019 0.0000 LOW
2019-03-10 08:07:20 26.6000 84127.0000 1541.4629 84131.0000 59.0000 23.2389 920.2000 57.6043 -64.2559 -25.3358 -3.6583 69.1672 -0.0284 -0.0248 -0.9887 0.9894 -1.9085 -1.4929 0.829 2.5609 8.1877 182.6289 190.6495 0.0000 LOW
2019-03-10 08:07:23 26.6000 84127.0000 1541.5596 84131.0000 59.0000 23.2580 920.2300 57.1641 -64.0421 -26.1457 -4.1019 69.2951 -0.0301 -0.0229 -0.9868 0.9875 -0.0114 -0.3832 1.1325 1.1956 7.2211 182.3751 193.2339 0.0000 LOW
2019-03-10 08:07:25 26.6000 84096.0000 1542.6243 84092.0000 59.0000 23.2580 920.2300 57.5554 -64.0378 -25.687 -4.5063 69.1445 -0.0301 -0.021 -1.0482 1.0488 -0.5559 -0.9424 -0.398 1.1643 6.1111 181.918 195.1445 0.0000 LOW
2019-03-10 08:07:27 26.6000 84129.0000 1541.2693 84125.0000 59.0000 23.2771 920.1400 57.8977 -64.0071 -25.4477 -4.3345 69.0165 -0.0289 -0.0236 -1.0485 1.0492 0.0573 0.2705 0.8979 0.9395 5.4444 181.7617 196.4545 0.0000 LOW
2019-03-10 08:07:30 26.6000 84128.0000 1541.8500 84130.0000 59.0000 23.2389 920.1400 57.5187 -64.3981 -25.549 -4.2032 69.4085 -0.0301 -0.0232 -1.049 1.0497 -1.4318 -0.5691 0.6639 1.6777 4.7598 181.6067 197.6495 0.0000 LOW
2019-03-10 08:07:32 26.6000 84129.0000 1541.0757 84134.0000 59.0000 23.3535 920.2600 57.5187 -64.1231 -25.6695 -4.5458 69.2196 -0.0272 -0.0246 -0.9875 0.9882 -0.0951 0.4849 0.9388 1.0609 4.0982 181.4144 198.6148 0.0000 LOW
2019-03-10 08:07:34 26.6000 84127.0000 1541.0757 84130.0000 59.0000 23.2962 920.2000 57.4667 -64.2946 -25.8598 -4.5241 69.4478 -0.0299 -0.0227 -0.9868 0.9875 1.3791 -1.5962 -1.5006 2.5887 3.8203 181.4767 199.324 0.0000 LOW
2019-03-10 08:07:37 26.6000 84120.0000 1541.4629 84132.0000 59.0000 23.2198 920.2000 57.4790 -64.4059 -25.7507 -5.0238 69.5446 -0.0294 -0.0232 -0.987 0.9877 0.7669 -1.18 0.227 1.4255 3.5043 181.3156 199.8302 0.0000 LOW
2019-03-10 08:07:39 26.6000 84126.0000 1541.3661 84133.0000 26.6000 23.2389 841.3100 57.8885 -64.0352 -25.3874 -4.0628 69.0039 -0.0321 -0.0244 -0.9856 0.9864 -2.135 -0.4811 -2.4738 3.3029 3.1471 181.1209 200.262 0.0000 LOW
2019-03-10 08:07:41 26.6000 84123.0000 1541.5596 84115.0000 26.6000 23.2580 841.3100 57.4087 -64.3457 -25.8019 -4.3267 69.4610 -0.0291 -0.0241 -0.9858 0.9865 1.0472 0.0702 1.3336 1.6971 2.7088 181.4492 200.7957 0.0000 LOW
2019-03-10 08:07:44 26.6000 84121.0000 1541.8500 84125.0000 59.0000 23.2771 920.0400 56.5528 -64.2415 -25.5719 -4.7655 69.3080 -0.0291 -0.0239 -0.987 0.9877 -1.6691 0.4015 -2.285 2.8580 2.5837 181.5732 200.7646 0.0000 LOW
2019-03-10 08:07:46 26.6000 84125.0000 1541.2693 84126.0000 59.0000 23.2771 920.0400 57.7755 -64.363 -25.6849 -3.9414 69.4107 -0.0264 -0.0227 -0.9853 0.9859 -1.243 -0.823 -0.1463 1.4979 2.4183 181.5727 200.8264 0.0000 LOW
2019-03-10 08:07:49 26.6000 84125.0000 1541.6564 84127.0000 59.0000 23.3344 920.1400 57.5187 -64.2542 -25.3142 -4.3375 69.1970 -0.0286 -0.0227 -0.926 0.9267 1.8405 1.2781 0.7307 2.3569 2.1884 181.4903 201.0128 0.0000 LOW
2019-03-10 08:07:51 26.6000 84124.0000 1540.6886 84132.0000 59.0000 23.3153 920.1700 57.4239 -64.0273 -25.5854 -4.6149 69.1043 -0.0289 -0.0251 -0.9868 0.9875 -0.6508 -0.6069 -0.125 0.8986 1.9284 181.3709 201.2048 0.0000 LOW
2019-03-10 08:07:53 26.6000 84125.0000 1542.2372 84125.0000 59.0000 23.2389 920.1700 57.5584 -63.9302 -25.0749 -4.5233 68.8206 -0.0299 -0.0227 -0.9868 0.9875 -0.8715 -2.0351 0.7145 2.3263 1.8415 181.4733 201.3309 0.0000 LOW
2019-03-10 08:07:55 26.6000 84131.0000 1541.6564 84132.0000 26.6000 23.3153 841.2800 57.5829 -63.9763 -25.3863 -4.6598 68.9866 -0.0267 -0.0246 -0.988 0.9887 2.7957 -0.9767 1.7553 3.4425 1.9686 181.3171 201.283 0.0000 LOW
2019-03-10 08:07:58 26.6000 84133.0000 1541.4629 84129.0000 26.6000 23.3535 841.2800 57.2375 -64.2375 -25.6185 -4.2702 69.2892 -0.0274 -0.022 -0.987 0.9876 0.0795 -1.1641 1.503 1.9028 2.2716 181.1045 201.5067 0.0000 LOW
2019-03-10 08:08:00 26.6000 84131.0000 1540.6886 84130.0000 59.0000 23.3153 920.2000 57.6471 -64.0579 -25.4447 -5.1049 69.1152 -0.0291 -0.0244 -0.9868 0.9875 -0.2672 -0.5284 -0.0511 0.5943 2.2056 181.2056 201.4846 0.0000 LOW
2019-03-10 08:08:02 26.6000 84146.0000 1539.9144 84080.0000 59.0000 23.3535 920.2000 57.3047 -63.8705 -25.3752 -4.1378 68.8510 -0.0284 -0.0239 -0.9868 0.9875 0.6258 0.4309 -1.8761 2.0241 2.1478 181.2105 201.4078 0.0000 LOW
2019-03-10 08:08:05 26.6000 84126.0000 1541.6564 84131.0000 59.0000 23.3535 920.1100 57.8641 -64.0082 -25.351 -4.561 68.9966 -0.0299 -0.0239 -1.0487 1.0494 -0.5278 -0.8806 0.0292 1.0271 2.3416 181.0687 201.596 0.0000 LOW
2019-03-10 08:08:07 26.6000 84131.0000 1541.8500 84114.0000 59.0000 23.3726 920.1100 57.5707 -63.9754 -24.9366 -4.4978 68.8107 -0.0257 -0.0253 -0.9848 0.9855 -0.5283 0.0356 -0.5812 0.7862 2.315 181.0132 201.7129 0.0000 LOW
2019-03-10 08:08:09 26.6000 84124.0000 1541.0757 84124.0000 59.0000 23.3535 920.0700 58.1423 -64.2125 -25.3186 -5.1476 69.2154 -0.0311 -0.0234 -0.9899 0.9907 -1.4447 -0.2703 -0.8862 1.7163 2.3271 180.914 202.009 0.0000 LOW
2019-03-10 08:08:12 26.6000 84127.0000 1541.2693 84122.0000 59.0000 23.3344 920.0700 57.1641 -63.9309 -25.456 -3.7283 68.9135 -0.0286 -0.0229 -0.9848 0.9855 1.6093 1.562 0.0306 2.2429 2.1492 181.0573 202.0451 0.0000 LOW
2019-03-10 08:08:14 26.6000 84138.0000 1541.4629 84102.0000 59.0000 23.3153 920.0400 57.9558 -64.1334 -25.628 -4.5406 69.2135 -0.0296 -0.0239 -0.9873 0.9880 -0.2227 1.256 -0.5797 1.4011 2.0975 181.0985 202.0995 0.0000 LOW
2019-03-10 08:08:16 26.6000 84129.0000 1541.8500 84125.0000 59.0000 23.2962 920.0400 57.3873 -64.238 -25.7508 -5.0703 69.3926 -0.0291 -0.0236 -0.9853 0.9860 1.9144 -0.2716 0.0314 1.9338 1.9954 181.1998 202.0718 0.0000 LOW
2019-03-10 08:08:19 26.6000 84131.0000 1541.2693 84125.0000 59.0000 23.2580 920.0400 57.3322 -64.0768 -24.6098 -4.6118 68.7950 -0.0281 -0.0239 -0.9885 0.9892 0.9981 1.8661 0.3368 2.1429 2.0225 181.2825 201.9048 0.0000 LOW
2019-03-10 08:08:21 26.6000 84126.0000 1540.5918 84126.0000 59.0000 23.3344 920.0400 57.3689 -64.2994 -24.8826 -4.4772 69.0913 -0.0294 -0.0241 -0.9856 0.9863 -0.224 -0.8828 0.0316 0.9113 1.8624 181.3467 201.9258 0.0000 LOW
2019-03-10 08:08:23 26.6000 84131.0000 1541.4629 84123.0000 59.0000 23.4107 920.0700 57.5554 -64.5075 -25.5956 -5.2082 69.5951 -0.0284 -0.0227 -0.9868 0.9875 0.6926 0.0328 1.5592 1.7064 1.8142 181.0613 201.8512 0.0000 LOW
2019-03-10 08:08:25 26.6000 84122.0000 1542.1404 84133.0000 59.0000 23.3344 920.0700 57.4178 -63.8786 -24.9729 -4.4421 68.7303 -0.0284 -0.0239 -0.9873 0.9880 -0.8343 -0.2726 -1.1893 1.4781 1.6334 180.9018 201.7385 0.0000 LOW
2019-03-10 08:08:28 26.6000 84122.0000 1541.6564 84125.0000 59.0000 23.3535 920.0700 57.3414 -64.1714 -25.2993 -3.8739 69.0871 -0.0289 -0.0244 -0.987 0.9877 1.6087 -0.2727 -1.7996 2.4292 1.5864 180.8593 201.7695 0.0000 LOW
2019-03-10 08:08:30 26.6000 84128.0000 1541.8500 84128.0000 59.0000 23.3535 920.0700 57.7785 -64.3256 -25.2171 -3.9412 69.2042 -0.0311 -0.0222 -0.986 0.9867 0.082 0.033 -0.2719 0.2859 1.7073 180.9762 201.7178 0.0000 LOW
2019-03-10 08:08:32 26.6000 84125.0000 1541.3661 84125.0000 59.0000 23.3726 920.0700 57.2344 -64.8332 -24.9495 -4.852 69.6374 -0.0222 -0.0195 -0.9906 0.9910 1.9153 13.157 -1.1892 13.3488 0.4086 180.9793 201.5129 0.0000 LOW
2019-03-10 08:08:35 26.6000 84129.0000 1542.4308 84130.0000 59.0000 23.3535 920.0700 57.3536 -65.8166 -29.1211 -3.4198 72.0525 -0.0587 -0.034 -0.9873 0.9896 -5.1048 -2.7273 -3.9325 6.9973 1.4305 179.9892 201.8306 0.0000 LOW
2019-03-10 08:08:37 26.6000 84123.0000 1541.4629 84130.0000 59.0000 23.3535 920.1100 57.2100 -65.6462 -32.4379 -3.3359 73.2992 -0.0592 -0.033 -0.9865 0.9888 1.3093 1.5475 -0.2671 2.0446 2.0805 180.2076 203.0684 0.0000 LOW
2019-03-10 08:08:39 26.6000 84122.0000 1541.7532 84129.0000 59.0000 23.4680 920.1100 57.1488 -65.9635 -32.6056 -3.2532 73.6539 -0.0575 -0.0333 -0.9856 0.9878 -0.5229 2.463 -0.5711 2.5818 2.3546 180.6268 203.8389 0.0000 LOW
2019-03-10 08:08:42 26.6000 84148.0000 1546.8843 84142.0000 59.0000 23.4871 920.2300 57.4790 -66.3923 -32.8519 -2.9707 74.1351 -0.058 -0.0362 -0.986 0.9884 2.8359 -3.3397 2.4827 5.0358 2.2407 180.9987 204.688 0.0000 LOW
2019-03-10 08:08:44 26.6000 84126.0000 1541.7532 84125.0000 59.0000 23.3535 920.2300 57.2864 -66.4284 -32.9172 -3.0889 74.2012 -0.056 -0.035 -0.9851 0.9873 -0.2196 0.0197 -1.488 1.5042 2.4794 181.1469 204.8982 0.0000 LOW
2019-03-10 08:08:46 26.6000 84129.0000 1541.4629 84123.0000 59.0000 23.3916 920.0100 57.2772 -66.3635 -32.7638 -3.1356 74.0771 -0.0563 -0.0357 -0.9853 0.9876 -0.8299 -0.5915 -0.571 1.1682 2.7184 181.2785 205.1336 0.0000 LOW
2019-03-10 08:08:49 26.6000 84128.0000 1541.3661 84126.0000 59.0000 23.3726 920.0100 57.4912 -66.3077 -32.7712 -2.8003 74.0169 -0.0592 -0.0367 -0.9882 0.9907 -0.2194 0.6296 0.04 0.6679 2.7196 181.6787 205.2451 0.0000 LOW
2019-03-10 08:08:51 26.6000 84122.0000 1542.2372 84128.0000 59.0000 23.5253 920.0700 57.2344 -66.3118 -32.5222 -2.7015 73.9070 -0.055 -0.0362 -0.9856 0.9878 1.3072 0.0187 0.0411 1.3080 3.0806 181.9318 205.4488 0.0000 LOW
2019-03-10 08:08:53 26.6000 84121.0000 1542.0436 84054.0000 59.0000 23.3535 920.0700 57.0113 -66.5623 -33.5895 -1.8427 74.5801 -0.0533 -0.0362 -0.9858 0.9879 2.5269 0.3245 1.2618 2.8430 3.2913 182.0122 205.6655 0.0000 LOW
2019-03-10 08:08:56 26.6000 84130.0000 1541.6564 84119.0000 59.0000 23.4107 919.9800 57.2772 -66.232 -32.8805 -1.2842 73.9558 -0.0546 -0.0261 -0.9877 0.9896 13.5239 23.8386 -10.9546 29.5157 3.5303 181.5628 205.7692 0.0000 LOW
2019-03-10 08:08:58 26.6000 84130.0000 1541.4629 84133.0000 59.0000 23.4871 920.1700 57.2436 -66.4291 -33.2104 -1.8277 74.2906 -0.0462 -0.0461 -0.9868 0.9890 -1.4445 -1.2087 -2.4009 3.0515 3.1501 181.6746 206.2862 0.0000 LOW
2019-03-10 08:09:00 26.6000 84132.0000 1541.0757 84134.0000 59.0000 23.3535 920.1700 56.7423 -66.715 -32.9865 -1.4312 74.4382 -0.0555 -0.034 -0.9858 0.9879 -1.7488 0.6231 0.6546 1.9685 3.079 182.0858 206.3187 0.0000 LOW
2019-03-10 08:09:03 26.6000 84131.0000 1541.4629 84130.0000 59.0000 23.3535 920.1700 57.7724 -66.5591 -32.3127 -1.8271 74.0106 -0.0639 -0.0109 -0.9933 0.9954 16.5737 14.9724 -0.2606 22.3367 2.0883 181.9201 206.4973 0.0000 LOW
2019-03-10 08:09:05 26.6000 84132.0000 1540.9789 84136.0000 59.0000 23.4107 920.1100 56.0484 -66.7217 -32.8361 -2.1058 74.3937 -0.0447 -0.0429 -0.9875 0.9894 -4.1945 0.9287 -11.8655 12.6193 3.8862 181.1516 205.6664 0.0000 LOW
2019-03-10 08:09:07 26.6000 84123.0000 1541.0757 84130.0000 59.0000 23.3344 920.1100 56.9991 -66.6291 -32.4808 -1.8157 74.1467 -0.0457 -0.0427 -0.9844 0.9864 1.3049 0.624 -0.8698 1.6878 3.5939 181.2976 205.6997 0.0000 LOW
2019-03-10 08:09:10 26.6000 84126.0000 1541.2693 84126.0000 59.0000 23.3726 919.9800 57.4576 -66.456 -32.4765 -2.2672 74.0018 -0.0481 -0.0434 -0.9844 0.9865 0.0823 3.6779 -1.4802 3.9654 3.36 181.6106 205.8256 0.0000 LOW
2019-03-10 08:09:12 26.6000 84134.0000 1540.9789 84135.0000 59.0000 23.4107 919.9800 57.2375 -66.6882 -32.0323 -1.7969 74.0041 -0.0333 -0.049 -0.9865 0.9883 2.5262 -2.1231 -2.3949 4.0774 2.5624 182.0522 206.0232 0.0000 LOW
2019-03-10 08:09:14 26.6000 84130.0000 1540.9789 84123.0000 59.0000 23.4871 920.0400 57.4087 -67.2937 -32.6971 -2.0374 74.8445 -0.0294 -0.0482 -0.9868 0.9884 0.9982 -0.2934 -1.7836 2.0649 1.7954 182.41 206.3197 0.0000 LOW
2019-03-10 08:09:16 26.6000 84126.0000 1541.6564 84130.0000 59.0000 23.4107 920.0400 57.3597 -67.0209 -32.5696 -1.6483 74.5339 -0.0306 -0.0475 -1.048 1.0495 -0.8342 -3.0421 3.1023 4.4243 1.7168 182.4062 206.0346 0.0000 LOW
2019-03-10 08:09:19 26.6000 84127.0000 1540.6886 84130.0000 59.0000 23.4298 919.9800 57.2497 -66.8332 -33.0486 -2.1391 74.5886 -0.0351 -0.0504 -0.986 0.9879 0.0813 2.4574 -1.1737 2.7245 1.6784 182.668 206.3275 0.0000 LOW
2019-03-10 08:09:21 26.6000 84131.0000 1540.9789 84131.0000 59.0000 23.3916 919.9800 57.2314 -66.4402 -33.0414 -1.8813 74.2265 -0.0333 -0.0485 -0.9865 0.9883 0.0813 -1.2079 -1.1734 1.6860 1.659 182.5819 206.5053 0.0000 LOW
2019-03-10 08:09:23 26.6000 84129.0000 1540.9789 84137.0000 59.0000 23.4298 920.0700 57.3873 -66.3981 -32.4352 -1.7678 73.9180 -0.0323 -0.0487 -0.9853 0.9870 0.0814 -2.429 -0.8677 2.5806 0.8705 182.5896 206.8725 0.0000 LOW
2019-03-10 08:09:26 26.6000 84126.0000 1541.7532 84124.0000 59.0000 23.3916 920.1100 57.2925 -66.4977 -32.7063 -1.8083 74.1277 -0.0415 -0.0461 -0.9851 0.9871 0.998 1.8473 0.9645 2.3106 1.495 182.5256 206.8264 0.0000 LOW
2019-03-10 08:09:28 26.6000 84129.0000 1541.3661 84131.0000 59.0000 23.4489 920.1100 57.1733 -66.4863 -32.1592 -2.0216 73.8832 -0.0383 -0.0478 -0.9875 0.9894 -1.1392 -0.9012 -1.7837 2.3003 1.9202 182.3567 206.7129 0.0000 LOW
2019-03-10 08:09:30 26.6000 84131.0000 1541.2693 84130.0000 26.7000 23.4298 841.2700 57.8305 -66.214 -32.1566 -2.5527 73.6536 -0.0252 -0.0516 -0.9812 0.9829 -1.4487 -14.3433 0.6597 14.4314 359.2683 183.8091 206.0522 0.0000 LOW
2019-03-10 08:09:33 26.6000 84126.0000 1541.7532 84134.0000 26.7000 23.4107 841.2700 57.2956 -66.6269 -32.6955 -2.2427 74.2507 -0.0249 -0.0526 -0.9841 0.9858 -7.2497 3.6758 -0.5609 8.1477 359.5852 183.241 206.384 0.0000 LOW
2019-03-10 08:09:35 26.6000 84129.0000 1541.2693 84130.0000 59.0000 23.4298 919.9800 57.4270 -66.1272 -32.8629 -2.1582 73.8745 -0.0264 -0.0528 -0.9851 0.9869 -1.7502 -0.9052 0.3557 2.0023 0.1507 183.3075 206.2344 0.0000 LOW
2019-03-10 08:09:37 26.6000 84123.0000 1541.3661 84134.0000 59.0000 23.4680 919.9800 57.4484 -66.5733 -32.9815 -1.9646 74.3212 -0.0262 -0.0521 -0.986 0.9877 0.6934 -0.2948 -1.4749 1.6562 0.4301 183.1795 206.4545 0.0000 LOW
2019-03-10 08:09:40 26.6000 84127.0000 1541.6564 84128.0000 59.0000 23.3535 919.9800 57.4545 -66.9716 -32.8623 -1.6183 74.6173 -0.0237 -0.0521 -0.9277 0.9295 -1.1394 -0.2942 -1.7803 2.1341 0.7187 183.2896 206.1798 0.0000 LOW
2019-03-10 08:09:42 26.7000 84123.0000 1542.2372 84125.0000 59.0000 23.3344 919.9800 56.9838 -66.6557 -32.3759 -3.0357 74.1647 -0.0254 -0.0509 -0.988 0.9896 -1.1395 -1.8218 1.2741 2.4981 0.5796 183.0809 206.0271 0.0000 LOW
2019-03-10 08:09:44 26.6000 84137.0000 1541.4629 84132.0000 59.0000 23.4871 919.9500 57.6043 -66.9464 -32.4244 -1.7337 74.4054 -0.0244 -0.0538 -0.9863 0.9881 1.3033 -1.2095 -1.474 2.3096 0.8827 183.16 206.3963 0.0000 LOW
2019-03-10 08:09:47 26.6000 84123.0000 1542.4308 84137.0000 59.0000 23.4298 919.9500 57.5187 -66.566 -32.2197 -2.3634 73.9914 -0.0259 -0.0536 -0.9868 0.9886 0.692 -2.4301 -4.5279 5.1852 1.2399 183.3623 206.2963 0.0000 LOW
2019-03-10 08:09:49 26.6000 84134.0000 1541.0757 84132.0000 59.0000 23.4489 919.9800 57.1763 -66.8662 -32.2229 -2.8652 74.2806 -0.0294 -0.0523 -0.9836 0.9854 0.0814 -0.291 1.5806 1.6092 1.5083 183.1757 206.2349 0.0000 LOW
2019-03-10 08:09:51 26.7000 84127.0000 1542.1404 84131.0000 59.0000 23.4680 919.9800 57.4087 -67.0465 -32.5654 -2.151 74.5679 -0.0264 -0.0536 -0.9863 0.9881 -2.3613 -0.5961 -0.5569 2.4982 1.4799 183.1494 205.9973 0.0000 LOW
2019-03-10 08:09:54 26.6000 84129.0000 1540.5918 84128.0000 59.0000 23.4489 919.9800 57.3536 -67.067 -32.4974 -2.0057 74.5526 -0.0257 -0.0533 -0.9865 0.9883 -0.2238 -0.9007 -1.7795 2.0070 1.5341 183.0985 205.8757 0.0000 LOW
2019-03-10 08:09:56 26.6000 84130.0000 1540.8822 84132.0000 26.7000 23.4489 841.2700 57.0235 -66.3182 -32.9264 -1.0143 74.0492 -0.0262 -0.0536 -0.9873 0.9891 -1.7512 0.6266 -1.1682 2.1964 1.6211 183.1787 206.1105 0.0000 LOW
2019-03-10 08:09:58 26.6000 84131.0000 1540.8822 84158.0000 26.7000 23.4680 920.4600 57.8244 -66.597 -32.8115 -2.0578 74.2697 -0.0244 -0.0531 -0.9836 0.9853 -0.224 1.5423 -2.6952 3.1134 1.6199 183.3776 206.2732 0.0000 LOW
2019-03-10 08:10:01 26.7000 84128.0000 1541.5596 84131.0000 59.2000 23.5635 920.4600 57.4056 -66.7058 -33.0073 -2.0087 74.4525 -0.0267 -0.0516 -0.927 0.9288 -1.1396 -0.2904 1.5803 1.9699 1.4892 183.3941 206.5424 0.0000 LOW
2019-03-10 08:10:03 26.7000 84131.0000 1541.5596 84128.0000 59.2000 23.4298 920.0100 57.0969 -66.3466 -32.6591 -1.3187 73.9610 -0.0254 -0.0538 -0.9851 0.9869 0.387 -0.597 -1.1679 1.3675 0.8757 183.5205 206.7459 0.0000 LOW
2019-03-10 08:10:06 26.7000 84133.0000 1541.8500 84125.0000 59.0000 23.5253 920.0100 57.1519 -67.2074 -32.1363 -2.6037 74.5410 -0.0227 -0.0528 -0.9889 0.9906 0.6925 -0.5973 1.8863 2.0963 0.836 183.4039 206.7317 0.0000 LOW
2019-03-10 08:10:08 26.7000 84133.0000 1541.1725 84129.0000 26.7000 23.5635 841.2400 57.3139 -66.5413 -32.8228 -2.6196 74.2425 -0.0281 -0.0548 -0.9858 0.9877 -1.445 0.6242 -0.5569 1.6697 1.0007 183.1082 206.5472 0.0000 LOW
2019-03-10 08:10:10 26.7000 84131.0000 1541.4629 84132.0000 26.7000 23.4871 841.2400 57.1274 -66.1774 -32.8072 -1.297 73.8745 -0.0276 -0.0519 -0.9844 0.9862 1.6092 2.1511 0.3602 2.7104 0.9844 183.0146 206.7413 0.0000 LOW
2019-03-10 08:10:12 26.7000 84128.0000 1541.5596 84128.0000 59.0000 23.5062 919.9500 57.9099 -66.5289 -32.5914 -1.6181 74.1007 -0.0249 -0.0543 -0.9894 0.9912 -1.1398 2.1506 -3.3048 4.1044 1.0085 182.9858 206.7408 0.0000 LOW
2019-03-10 08:10:15 26.7000 84128.0000 1541.7532 84129.0000 59.0000 23.5635 919.9800 57.2589 -66.5064 -32.2859 -2.1523 73.9602 -0.0276 -0.0523 -0.9848 0.9866 1.3032 0.9283 0.6659 1.7331 0.9539 183.1152 206.6339 0.0000 LOW
2019-03-10 08:10:17 26.7000 84123.0000 1541.5596 84126.0000 59.0000 23.6399 919.9800 56.2899 -66.8377 -32.4343 -2.1885 74.3240 -0.0262 -0.0548 -0.9865 0.9884 -2.3621 -0.5993 -0.5552 2.4994 0.956 183.2593 206.6071 0.0000 LOW
2019-03-10 08:10:19 26.5000 84120.0000 1541.4629 84129.0000 59.0000 23.5444 919.9800 57.0755 -66.6836 -32.32 -2.4465 74.1436 -0.0252 -0.0533 -0.9863 0.9881 -0.2239 -0.5992 -0.2495 0.6866 1.1373 183.2149 206.4586 0.0000 LOW
2019-03-10 08:10:22 26.7000 84128.0000 1541.5596 84129.0000 59.0000 23.5253 919.9200 57.0663 -66.4514 -32.9546 -2.0933 74.2036 -0.0247 -0.0536 -0.9268 0.9287 0.0813 0.9278 -0.2493 0.9641 1.0098 183.3242 206.4109 0.0000 LOW
2019-03-10 08:10:24 26.7000 84134.0000 1540.3015 84126.0000 59.0000 23.4680 919.9200 57.3445 -66.6653 -33.0191 -2.0895 74.4237 -0.0259 -0.0533 -0.9882 0.9900 1.9132 -1.5159 0.973 2.6277 1.0638 183.3948 206.4877 0.0000 LOW
2019-03-10 08:10:26 26.7000 84129.0000 1541.5596 84125.0000 59.0000 23.4298 919.8200 57.7021 -66.2717 -32.7052 -2.1885 73.9348 -0.0237 -0.0526 -0.9841 0.9858 0.386 1.2319 0.3627 1.3409 1.0402 183.2309 206.5178 0.0000 LOW
2019-03-10 08:10:29 26.7000 84127.0000 1542.1404 84134.0000 59.0000 23.4489 919.8900 57.3078 -66.6531 -32.8199 -2.4214 74.3347 -0.0237 -0.0533 -0.9832 0.9849 -0.5307 -0.6011 -1.4689 1.6735 1.0717 183.2561 206.5152 0.0000 LOW
2019-03-10 08:10:31 26.7000 84128.0000 1541.1725 84137.0000 59.0000 23.5253 919.8900 56.1096 -66.7109 -32.978 -2.5945 74.4622 -0.0254 -0.0514 -0.9848 0.9865 2.5236 1.2309 -0.5521 2.8616 1.253 183.2037 206.4495 0.0000 LOW
2019-03-10 08:10:34 26.7000 84125.0000 1541.7532 84131.0000 26.7000 23.5826 841.2900 57.0266 -66.5324 -32.752 -2.383 74.1952 -0.0247 -0.0538 -0.9268 0.9287 -0.8347 -6.0981 1.5874 6.3564 1.7227 183.0151 206.677 0.0000 LOW
2019-03-10 08:10:36 26.7000 84130.0000 1542.0436 84118.0000 26.7000 23.5253 919.7300 58.0750 -66.6015 -32.9011 -1.6176 74.3025 -0.0385 -0.0526 -0.986 0.9882 -3.582 -1.5157 0.0593 3.8899 1.8516 183.3932 206.305 0.0000 LOW
2019-03-10 08:10:38 26.7000 84125.0000 1541.3661 84130.0000 59.0000 23.5062 919.7300 57.6899 -66.2691 -32.6954 -0.8335 73.9005 -0.0373 -0.0516 -0.9853 0.9874 -4.1893 5.511 -2.3817 7.3208 2.3994 182.8257 206.5201 0.0000 LOW
2019-03-10 08:10:40 26.7000 84133.0000 1541.2693 84128.0000 59.0000 23.4298 919.7300 57.3842 -66.225 -32.2958 -2.1048 73.7102 -0.0346 -0.0504 -1.0485 1.0503 3.4471 0.3179 -1.1594 3.6507 2.327 182.7117 206.6883 0.0000 LOW
2019-03-10 08:10:43 26.7000 84133.0000 1540.9789 84128.0000 59.0000 23.5253 919.8200 57.2283 -66.4308 -32.0478 -1.7834 73.7787 -0.0365 -0.0509 -0.9832 0.9852 1.003 0.0122 1.2841 1.6294 2.3499 182.7742 206.6832 0.0000 LOW
2019-03-10 08:10:45 26.7000 84124.0000 1541.2693 84120.0000 59.0000 23.4680 919.8200 57.2130 -66.4636 -32.1484 -2.1378 73.8614 -0.0343 -0.0514 -0.9863 0.9882 0.6974 2.1495 -2.992 3.7495 2.1116 182.5761 206.4684 0.0000 LOW
2019-03-10 08:10:47 26.7000 84131.0000 1541.2693 84146.0000 59.0000 23.4871 920.0200 57.4025 -66.3713 -32.684 -1.3865 73.9954 -0.0351 -0.0514 -0.9877 0.9897 -0.8299 0.622 0.9788 1.4261 1.9519 182.5571 206.3229 0.0000 LOW
2019-03-10 08:10:50 26.7000 84133.0000 1540.9789 84130.0000 59.0000 23.4871 920.0200 57.1702 -66.3283 -32.511 -1.9863 73.8942 -0.0343 -0.0497 -0.986 0.9878 0.0857 -0.2945 0.3676 0.4788 1.9666 182.6826 206.2335 0.0000 LOW
2019-03-10 08:10:52 26.7000 84125.0000 1541.0757 84133.0000 59.0000 23.6399 919.8600 57.4087 -66.298 -32.5178 -2.4655 73.8844 -0.0353 -0.0492 -0.9865 0.9884 4.0548 5.1995 1.2837 6.7174 1.556 182.9785 206.0791 0.0000 LOW
2019-03-10 08:10:54 26.7000 84131.0000 1541.5596 84130.0000 59.0000 23.5444 919.8600 57.0205 -66.361 -32.6349 -2.2871 73.9868 -0.0304 -0.0521 -0.9858 0.9876 -1.7485 1.5337 -3.9079 4.5477 1.0592 183.4699 205.7337 0.0000 LOW
2019-03-10 08:10:57 26.7000 84128.0000 1541.2693 84134.0000 59.0000 23.5062 919.8600 57.2864 -66.3236 -33.0037 -1.6006 74.0988 -0.0346 -0.0552 -0.9868 0.9889 -0.8315 4.5898 -1.7746 4.9907 1.6824 183.5055 205.1826 0.0000 LOW
2019-03-10 08:10:59 26.7000 84122.0000 1541.8500 84129.0000 59.0000 23.6208 919.8200 57.7816 -66.1368 -32.3112 -1.9516 73.6335 -0.0316 -0.0531 -0.926 0.9281 3.4444 0.3145 2.5013 4.2684 1.6798 183.4986 205.5356 0.0000 LOW
2019-03-10 08:11:01 26.7000 84127.0000 1541.5596 84125.0000 59.0000 23.5444 919.8200 57.0541 -66.1095 -32.3241 -1.4462 73.6030 -0.0304 -0.0531 -0.9885 0.9904 -0.527 2.7571 -2.9945 4.1044 1.3921 183.5416 205.8246 0.0000 LOW
2019-03-10 08:11:04 26.7000 84125.0000 1541.2693 84122.0000 59.0000 23.5826 919.6700 57.0938 -66.1672 -32.5912 -2.3169 73.7947 -0.0336 -0.0507 -0.9853 0.9872 1.0006 4.5871 0.9773 4.7956 1.9559 183.4176 206.0125 0.0000 LOW
2019-03-10 08:11:06 26.7000 84131.0000 1541.3661 84136.0000 58.9000 23.5635 919.6700 57.2742 -66.1388 -32.3378 -1.9402 73.6467 -0.0333 -0.0509 -1.049 1.0508 -0.5265 -0.3003 0.9771 1.1498 1.8524 183.1527 205.8597 0.0000 LOW
2019-03-10 08:11:08 26.7000 84116.0000 1541.9468 84125.0000 26.7000 23.6017 841.1900 56.6567 -66.2749 -32.5201 -1.8393 73.8465 -0.0341 -0.0526 -0.986 0.9880 0.3892 1.8372 -0.5497 1.9568 1.7236 183.2583 205.8161 0.0000 LOW
2019-03-10 08:11:11 26.7000 84127.0000 1541.3661 84125.0000 26.7000 23.5826 841.1900 57.1886 -66.3061 -32.4211 -1.0775 73.8159 -0.0341 -0.0509 -0.986 0.9879 -0.8333 0.004 0.6722 1.0706 1.6807 183.2272 206.1098 0.0000 LOW
2019-03-10 08:11:13 26.7000 84124.0000 1541.2693 84133.0000 59.0000 23.5826 919.7600 57.2191 -66.0502 -32.4793 -1.8777 73.6278 -0.0316 -0.0528 -0.9268 0.9288 -0.5278 0.6147 0.3671 0.8895 1.7154 183.3957 206.32 0.0000 LOW
2019-03-10 08:11:15 26.7000 84124.0000 1541.4629 84123.0000 59.0000 23.5635 919.8300 57.2803 -66.0201 -31.7031 -2.0613 73.2666 -0.0333 -0.0504 -0.9846 0.9865 -0.8335 1.2252 -1.4643 2.0833 1.777 183.5318 206.3954 0.0000 LOW
2019-03-10 08:11:18 26.7000 84122.0000 1542.4308 84131.0000 59.0000 23.6017 919.8300 57.2650 -66.2266 -32.2288 -2.3088 73.6885 -0.0343 -0.054 -0.9868 0.9889 2.2205 0.9187 0.3687 2.4312 1.7162 183.3944 206.4792 0.0000 LOW
2019-03-10 08:11:20 26.7000 84125.0000 1541.8500 84127.0000 59.0000 23.6208 919.7600 57.0327 -66.2937 -32.2919 -1.8356 73.7631 -0.0343 -0.0499 -0.9856 0.9875 0.082 0.6132 0.6752 0.9158 1.8176 183.7107 206.5386 0.0000 LOW
2019-03-10 08:11:22 26.7000 84123.0000 1541.4629 84129.0000 59.0000 23.5444 919.7600 57.1244 -66.2226 -32.1541 -2.1087 73.6462 -0.0313 -0.0521 -0.9865 0.9884 -2.0565 0.9186 1.5915 2.7579 1.8294 183.7454 206.5392 0.0000 LOW
2019-03-10 08:11:25 26.7000 84133.0000 1541.5596 84133.0000 26.7000 23.5253 841.2800 57.3475 -66.0482 -32.4297 -1.5908 73.5974 -0.0328 -0.0519 -0.9858 0.9877 0.9975 -1.2201 -1.4624 2.1499 1.6078 183.8962 206.4047 0.0000 LOW
2019-03-10 08:11:27 26.7000 84129.0000 1541.5596 84130.0000 26.7000 23.6208 841.2800 56.9715 -66.0813 -32.7473 -1.8321 73.7732 -0.0336 -0.0497 -0.9858 0.9876 -0.8347 1.2225 1.592 2.1739 1.4152 183.6094 206.4476 0.0000 LOW
2019-03-10 08:11:29 26.7000 84126.0000 1542.0436 84129.0000 59.0000 23.6399 919.7300 57.2528 -66.3536 -32.4216 -2.7235 73.9011 -0.0338 -0.0516 -1.0485 1.0503 0.9978 -0.9158 -0.545 1.4599 1.5017 183.5267 206.5495 0.0000 LOW
2019-03-10 08:11:32 26.7000 84125.0000 1541.0757 84127.0000 59.0000 23.5826 919.7600 57.3964 -66.0484 -32.0824 -2.4411 73.4686 -0.0341 -0.0516 -0.9865 0.9884 -1.446 -0.0002 0.0659 1.4475 1.2461 183.493 206.3266 0.0000 LOW
2019-03-10 08:11:34 26.7000 84132.0000 1541.3661 84128.0000 59.0000 23.6208 919.7600 56.7270 -65.9938 -32.5769 -2.6696 73.6448 -0.0338 -0.0511 -0.9851 0.9870 -0.8351 0.3049 1.2877 1.5648 1.2548 183.3012 206.4134 0.0000 LOW
2019-03-10 08:11:36 26.7000 84116.0000 1544.0764 84136.0000 26.7000 23.6208 841.3600 56.8921 -66.217 -32.4984 -2.362 73.7998 -0.0331 -0.0511 -0.9863 0.9882 0.9975 3.3591 -0.5448 3.5462 1.3767 183.2445 206.2869 0.0000 LOW
2019-03-10 08:11:39 26.7000 84129.0000 1541.4629 84124.0000 26.7000 23.6017 841.3600 57.3078 -65.8553 -32.1682 -1.823 73.3146 -0.0304 -0.0504 -0.9858 0.9876 0.3854 -0.307 -2.0714 2.1292 1.2889 183.2866 206.4282 0.0000 LOW
2019-03-10 08:11:41 26.7000 84116.0000 1541.9468 84123.0000 58.9000 23.5826 919.6000 57.4148 -65.7275 -32.2381 -2.4326 73.2483 -0.0323 -0.0504 -0.9851 0.9869 -0.2259 -0.9178 -0.849 1.2705 1.4679 183.3718 206.3159 0.0000 LOW
2019-03-10 08:11:43 26.7000 84129.0000 1541.6564 84123.0000 58.9000 23.6017 919.6000 57.3170 -66.0526 -32.331 -2.223 73.5743 -0.0346 -0.0531 -0.9865 0.9885 1.3013 0.3043 0.0679 1.3381 1.6572 183.0783 206.5862 0.0000 LOW
2019-03-10 08:11:46 26.7000 84129.0000 1541.3661 84127.0000 58.9000 23.5826 919.6400 57.0724 -66.201 -32.0402 -2.7529 73.5984 -0.0365 -0.049 -0.9868 0.9887 -0.5342 0.6061 1.8991 2.0638 0.317 184.0879 205.6735 0.0000 LOW
2019-03-10 08:11:48 26.7000 84127.0000 1541.6564 84129.0000 58.9000 23.6017 919.6000 57.7235 -66.6586 -33.6706 -2.3455 74.7167 -0.0388 -0.0504 -0.9863 0.9883 0.9929 0.9103 2.5101 2.8487 0.5487 183.8414 205.8129 0.0000 LOW
2019-03-10 08:11:50 26.7000 84123.0000 1540.9789 84131.0000 58.9000 23.6017 919.6000 57.3353 -66.4274 -32.9388 -2.3322 74.1822 -0.0385 -0.0487 -0.9263 0.9284 1.2987 2.4371 -2.6814 3.8492 0.718 183.8056 206.0511 0.0000 LOW
2019-03-10 08:11:53 26.7000 84130.0000 1541.1725 84129.0000 26.8000 23.6208 841.2400 57.2497 -66.191 -32.6461 -2.6737 73.8523 -0.0368 -0.0487 -0.9858 0.9877 0.0769 -0.6174 -0.2376 0.6660 0.9297 183.8761 206.0974 0.0000 LOW
2019-03-10 08:11:55 26.7000 84126.0000 1541.2693 84126.0000 26.8000 23.6017 919.6700 56.5344 -65.8975 -32.6246 -2.3968 73.5703 -0.0363 -0.0509 -0.986 0.9880 1.2988 1.2152 -1.4585 2.3002 1.2996 183.4238 206.157 0.0000 LOW
2019-03-10 08:11:57 26.7000 84127.0000 1540.9789 84132.0000 58.9000 23.6780 919.6700 57.5156 -65.9543 -32.778 -2.2978 73.6861 -0.0392 -0.0475 -0.9858 0.9877 0.0768 -0.3122 -1.7627 1.7918 1.3335 183.4509 206.2877 0.0000 LOW
2019-03-10 08:12:00 26.7000 84138.0000 1542.1404 84128.0000 26.8000 23.6780 841.2400 58.1361 -66.1718 -32.434 -2.2756 73.7282 -0.038 -0.0497 -0.9863 0.9883 0.0761 0.2984 -2.0674 2.0902 1.6089 183.3069 206.3442 0.0000 LOW
2019-03-10 08:12:02 26.7000 84120.0000 1540.9789 84129.0000 26.8000 23.6780 919.7000 57.3047 -66.2564 -32.2579 -2.6346 73.7389 -0.037 -0.0487 -0.987 0.9889 0.0759 -0.0074 1.2928 1.2950 1.6157 183.2624 206.4374 0.0000 LOW
2019-03-10 08:12:05 26.7000 84135.0000 1541.5596 84132.0000 58.9000 23.6017 919.7000 56.9410 -66.5691 -32.488 -2.2316 74.1073 -0.0368 -0.0502 -0.9844 0.9864 -1.4516 -0.6182 -0.8441 1.7894 1.7207 183.394 206.5876 0.0000 LOW
2019-03-10 08:12:07 26.7000 84135.0000 1541.7532 84125.0000 26.8000 23.6208 841.2100 57.1427 -66.4688 -33.365 -2.0351 74.4007 -0.0383 -0.0461 -0.9863 0.9881 -0.2302 -1.2295 0.0722 1.2529 1.8607 183.4888 206.4972 0.0000 LOW
2019-03-10 08:12:09 26.7000 84125.0000 1541.2693 84132.0000 26.8000 23.6017 841.2100 57.1122 -66.784 -32.8222 -1.0174 74.4207 -0.0346 -0.0482 -0.9868 0.9886 0.3803 -0.0082 -0.8438 0.9256 1.9181 183.6358 206.4534 0.0000 LOW
2019-03-10 08:12:12 26.8000 84131.0000 1540.8822 84132.0000 58.9000 23.6399 919.6000 57.3292 -66.3461 -32.553 -1.3606 73.9145 -0.0375 -0.048 -0.9863 0.9882 0.9911 2.4345 -1.7594 3.1630 1.9278 183.5105 206.3833 0.0000 LOW
2019-03-10 08:12:14 26.8000 84142.0000 1540.9789 84116.0000 58.9000 23.6399 919.4200 57.1672 -66.4896 -32.1708 -2.0849 73.8930 -0.038 -0.0497 -0.9841 0.9861 2.5177 0.2959 -0.8435 2.6717 1.9678 183.3114 206.3415 0.0000 LOW
2019-03-10 08:12:16 26.7000 84134.0000 1540.9789 84123.0000 58.9000 23.6780 919.4200 56.3113 -66.3095 -32.5448 -1.9173 73.8904 -0.0353 -0.0475 -0.9868 0.9886 1.6004 3.0447 -1.1488 3.6265 1.752 183.5745 206.48 0.0000 LOW
2019-03-10 08:12:19 26.8000 84123.0000 1541.7532 84130.0000 58.9000 23.6017 919.4200 58.3593 -66.6459 -32.59 -1.8985 74.2118 -0.0365 -0.0485 -0.987 0.9889 0.0727 0.2957 -0.5375 0.6178 1.8425 183.4676 206.7406 0.0000 LOW
2019-03-10 08:12:21 26.7000 84122.0000 1542.6243 84123.0000 58.9000 23.6780 919.5100 57.1549 -66.5121 -32.6256 -1.5155 74.0985 -0.038 -0.048 -0.9865 0.9884 -1.7594 2.1275 0.0736 2.7617 1.8844 183.2422 206.3837 0.0000 LOW
2019-03-10 08:12:23 26.8000 84129.0000 1542.1404 84119.0000 58.9000 23.6399 919.5100 56.4733 -66.3811 -32.5583 -1.6842 73.9549 -0.038 -0.049 -0.9865 0.9884 0.6833 1.5152 -1.4528 2.2076 1.8727 183.1608 206.2643 0.0000 LOW
2019-03-10 08:12:26 26.8000 84132.0000 1542.0436 84129.0000 58.9000 23.7544 919.5400 57.7021 -66.353 -32.4196 -2.2515 73.8838 -0.0378 -0.0502 -0.9858 0.9878 1.5979 0.2927 0.3802 1.6684 1.8997 183.2802 206.1465 0.0000 LOW
2019-03-10 08:12:28 26.8000 84125.0000 1541.8500 84133.0000 58.9000 23.6589 919.5100 55.1773 -66.694 -32.4666 -1.9583 74.2025 -0.0388 -0.0487 -0.986 0.9880 -0.2352 -0.6244 0.6862 0.9571 1.7787 183.1732 206.1434 0.0000 LOW
2019-03-10 08:12:30 26.8000 84125.0000 1541.3661 84140.0000 58.9000 23.6589 919.5100 57.3536 -66.3037 -32.5994 -1.4696 73.8990 -0.0378 -0.0487 -0.9858 0.9877 -0.5405 -0.3185 0.0763 0.6320 1.8337 182.9524 206.4161 0.0000 LOW
2019-03-10 08:12:33 26.8000 84123.0000 1541.0757 84128.0000 26.8000 23.7926 841.2600 57.1733 -66.3468 -32.2351 -2.0691 73.7921 -0.0368 -0.048 -0.987 0.9889 0.0698 2.1249 -2.0605 2.9607 1.8919 183.0051 206.5214 0.0000 LOW
2019-03-10 08:12:35 26.8000 84133.0000 1541.5596 84140.0000 26.8000 23.7162 841.2600 57.6624 -66.2725 -32.4136 -1.9303 73.7998 -0.036 -0.0478 -0.9851 0.9869 1.5965 0.9026 2.8263 3.3692 2.0502 183.0837 206.4602 0.0000 LOW
2019-03-10 08:12:37 26.8000 84134.0000 1541.3661 84129.0000 58.9000 23.7162 919.5100 56.1340 -66.1118 -32.7421 -0.8452 73.7803 -0.036 -0.0497 -1.0485 1.0503 1.2909 2.4291 0.689 2.8358 2.0977 182.8721 206.3933 0.0000 LOW
2019-03-10 08:12:39 26.8000 84130.0000 1541.3661 84138.0000 58.9000 23.5635 919.5100 57.1672 -66.4517 -32.9182 -1.2029 74.1679 -0.0373 -0.0495 -0.9865 0.9884 -0.8474 -0.0146 -0.5321 1.0007 1.9338 182.9403 206.4807 0.0000 LOW
2019-03-10 08:12:42 26.8000 84141.0000 1540.0112 84127.0000 58.9000 23.7544 919.5100 56.7606 -66.4201 -32.6634 -1.7187 74.0370 -0.0395 -0.0504 -0.9868 0.9889 -0.2369 1.512 0.3851 1.5782 2.0775 182.8134 206.6987 0.0000 LOW
2019-03-10 08:12:44 26.8000 84127.0000 1540.6886 84133.0000 58.9000 23.6589 919.6000 57.0602 -66.4511 -32.5642 -1.4552 74.0155 -0.037 -0.0509 -0.9858 0.9878 0.3734 1.5116 -2.0566 2.5795 1.9453 183.0205 206.7685 0.0000 LOW
2019-03-10 08:12:46 26.8000 84132.0000 1541.2693 84134.0000 58.9000 23.6971 919.6000 57.2039 -66.4169 -32.4665 -2.1528 73.9589 -0.0365 -0.0487 -0.9868 0.9887 -2.0703 -0.3213 0.3865 2.1304 1.9302 183.1376 206.8748 0.0000 LOW
2019-03-10 08:12:49 26.8000 84135.0000 1540.9789 84137.0000 58.9000 23.7162 919.6000 57.4942 -66.482 -32.3122 -2.0276 73.9462 -0.0395 -0.0495 -0.9858 0.9878 0.0671 -0.016 0.0821 0.1072 1.845 183.2562 206.679 0.0000 LOW
2019-03-10 08:12:51 26.8000 84124.0000 1540.7854 84139.0000 58.9000 23.7735 919.6000 56.6353 -66.6526 -32.0568 -1.2876 73.9721 -0.0365 -0.0466 -0.9844 0.9862 -0.8497 -1.2375 -1.1386 1.8841 1.8903 183.3305 206.6961 0.0000 LOW
2019-03-10 08:12:53 26.7000 84128.0000 1541.2693 84135.0000 58.9000 23.7353 919.6000 56.6689 -66.25 -32.3276 -2.2637 73.7513 -0.0355 -0.0492 -0.9868 0.9887 -0.85 0.2894 -0.2216 0.9249 1.8739 183.2035 206.7671 0.0000 LOW
2019-03-10 08:12:56 26.8000 84131.0000 1541.2693 84132.0000 58.9000 23.7353 919.5400 57.2894 -66.3763 -32.5429 -1.9651 73.9508 -0.0365 -0.0502 -0.9873 0.9892 -0.5447 1.2052 -1.747 2.1912 1.9163 183.2769 206.6489 0.0000 LOW
2019-03-10 08:12:58 26.8000 84132.0000 1541.1725 84120.0000 58.9000 23.8308 919.5400 57.2375 -66.629 -32.208 -2.5051 74.0476 -0.037 -0.0511 -0.9846 0.9866 3.7307 -1.8478 2.8336 5.0360 2.2926 183.0826 206.3829 0.0000 LOW
2019-03-10 08:13:00 26.8000 84132.0000 1541.3661 84121.0000 58.9000 23.7353 919.4000 56.7851 -66.3735 -32.2724 -2.4945 73.8456 -0.0358 -0.0478 -0.9856 0.9874 -1.1573 2.429 -1.4422 3.0528 2.6008 183.098 206.1913 0.0000 LOW
2019-03-10 08:13:03 26.8000 84131.0000 1541.2693 84081.0000 58.9000 23.8117 919.4800 57.0449 -66.4066 -32.3779 -2.4427 73.9198 -0.0373 -0.0468 -1.0475 1.0492 0.3705 -0.9308 -0.5249 1.1310 2.4358 182.8953 206.476 0.0000 LOW
2019-03-10 08:13:05 26.8000 84127.0000 1541.4629 84129.0000 58.9000 23.7544 919.4800 56.9746 -66.2956 -32.625 -1.862 73.9119 -0.0358 -0.0487 -0.9858 0.9877 -0.8513 1.8169 0.0862 2.0083 2.3794 182.8569 206.3051 0.0000 LOW
2019-03-10 08:13:07 26.8000 84129.0000 1541.8500 84126.0000 58.9000 23.8308 919.4500 57.4056 -66.3004 -32.1575 -2.7043 73.7371 -0.038 -0.0482 -0.9841 0.9860 0.6755 0.289 -1.1344 1.3515 2.2828 182.8761 206.473 0.0000 LOW
2019-03-10 08:13:10 26.8000 84130.0000 1541.5596 84124.0000 58.9000 23.7544 919.4500 57.7632 -66.4126 -32.5449 -2.0785 73.9873 -0.037 -0.0497 -0.986 0.9879 0.37 -0.3221 1.3102 1.3990 1.9543 183.2044 206.7122 0.0000 LOW
2019-03-10 08:13:12 26.8000 84126.0000 1542.1404 84130.0000 26.8000 23.7353 841.2500 57.0052 -66.5672 -32.3285 -1.8777 74.0260 -0.0348 -0.0511 -0.986 0.9879 -1.7686 -1.5443 3.1441 3.9241 1.9738 183.3585 206.6728 0.0000 LOW
2019-03-10 08:13:14 26.8000 84117.0000 1543.0115 84114.0000 26.8000 23.6971 841.2500 57.2650 -66.2106 -33.0023 -1.8147 74.0019 -0.0583 -0.0323 -0.986 0.9883 15.015 3.9515 -11.8202 19.5136 3.4569 182.1927 207.1832 0.0000 LOW
2019-03-10 08:13:17 26.8000 84128.0000 1540.5918 84133.0000 58.9000 23.6780 919.4000 57.2986 -66.7624 -32.6918 -2.4817 74.3783 -0.0365 -0.0347 -0.9865 0.9878 -5.7471 -1.8495 -4.1804 7.3434 3.6142 181.556 207.3466 0.0000 LOW
2019-03-10 08:13:19 26.8000 84132.0000 1541.0757 84132.0000 58.9000 23.7544 919.4000 57.1825 -66.541 -33.0047 -2.1106 74.3066 -0.0442 -0.0468 -0.9463 0.9485 -99.804 -41.23 -37.1418 114.1940 1.74 181.9513 208.3488 0.0000 LOW
2019-03-10 08:13:21 26.8000 84135.0000 1541.4629 84132.0000 58.9000 23.7544 919.4200 57.0327 -66.305 -34.3346 -1.352 74.6796 -0.0442 -0.0171 -0.9812 0.9823 173.8619 154.8516 81.362 246.6308 354.9221 193.8901 201.8864 0.0000 LOW
2019-03-10 08:13:24 26.8000 84129.0000 1541.5596 84130.0000 58.9000 23.7353 919.4800 57.1611 -66.7483 -33.176 -2.4951 74.5802 -0.0081 -0.0509 -0.9848 0.9861 -3.5929 -2.1394 1.9519 4.6147 354.9813 192.405 202.9184 0.0000 LOW
2019-03-10 08:13:26 26.8000 84131.0000 1541.1725 84125.0000 58.9000 23.7353 919.4800 57.4392 -66.9221 -32.327 -2.33 74.3575 -0.0126 -0.0461 -0.9856 0.9868 2.5153 3.9692 1.0367 4.8121 356.2781 189.9086 203.7941 0.0000 LOW
2019-03-10 08:13:28 26.8000 84117.0000 1540.9789 84124.0000 58.9000 23.7544 919.4800 56.9899 -67.0429 -32.2879 -2.5797 74.4575 -0.0151 -0.0449 -0.926 0.9272 2.5143 1.8296 -1.4071 3.4131 357.2691 188.243 204.297 0.0000 LOW
2019-03-10 08:13:31 26.8000 84130.0000 1542.3340 84107.0000 58.9000 23.7162 919.3000 57.1122 -67.4267 -32.2264 -2.6546 74.7793 -0.0136 -0.0444 -0.988 0.9891 0.9867 1.5246 -3.5441 3.9823 358.1171 186.7992 204.7193 0.0000 LOW
2019-03-10 08:13:33 26.8000 84130.0000 1541.8500 84130.0000 58.9000 23.7544 919.3000 56.8798 -67.0884 -31.6721 -3.0765 74.2525 -0.0158 -0.0451 -0.9904 0.9916 -4.5102 -3.0566 -0.1827 5.4514 358.636 185.764 205.0997 0.0000 LOW
2019-03-10 08:13:35 26.8000 84126.0000 1541.3661 84131.0000 58.9000 23.8308 919.4000 57.2497 -67.1745 -32.0853 -2.5173 74.4864 -0.0146 -0.0432 -0.9865 0.9876 1.2928 -0.3077 0.1238 1.3347 359.0923 185.0349 205.2335 0.0000 LOW
2019-03-10 08:13:37 26.8000 84124.0000 1541.6564 84125.0000 58.9000 23.8308 919.3300 56.5192 -67.3649 -32.182 -2.6109 74.7029 -0.017 -0.0451 -0.987 0.9882 0.6817 2.1348 1.9578 2.9757 359.1895 184.514 205.5183 0.0000 LOW
2019-03-10 08:13:40 26.8000 84136.0000 1540.9789 84128.0000 58.9000 23.8117 919.3300 57.4514 -67.2614 -31.952 -2.9814 74.5246 -0.0062 -0.0463 -0.9868 0.9879 -0.8476 2.1268 0.4371 2.3308 357.8934 184.5012 207.1504 0.0000 LOW
2019-03-10 08:13:42 26.8000 84131.0000 1541.8500 84129.0000 26.8000 23.7544 841.2400 57.1733 -66.9496 -31.731 -2.2677 74.1232 -0.0153 -0.0432 -0.9844 0.9855 -0.2368 1.2096 -3.8385 4.0315 358.4036 184.2218 206.6634 0.0000 LOW
2019-03-10 08:13:45 26.8000 84184.0000 1536.7215 84184.0000 26.8000 23.7735 920.1400 57.1213 -67.0614 -31.3644 -2.6426 74.0806 -0.0136 -0.0434 -1.0482 1.0492 -0.2368 1.5146 -1.0886 1.8802 358.8912 183.9311 206.4331 0.0000 LOW
2019-03-10 08:13:47 26.8000 84184.0000 1536.1411 84189.0000 59.0000 23.7353 920.1400 56.7637 -66.6987 -31.8542 -1.9868 73.9416 -0.0351 -0.0256 -0.9839 0.9849 46.807 51.9252 27.3205 75.0569 6.8815 179.3669 209.5383 0.0000 LOW
2019-03-10 08:13:49 26.8000 84183.0000 1536.0443 84185.0000 26.8000 23.8690 841.7900 57.2772 -65.803 -32.5987 -2.0707 73.4643 -0.0212 -0.0391 -0.9885 0.9895 0.075 1.8345 -1.389 2.3022 5.6573 180.3446 208.755 0.0000 LOW
2019-03-10 08:13:52 26.8000 84184.0000 1536.6248 84187.0000 26.8000 23.8117 920.1300 56.4244 -66.5985 -31.469 -1.74 73.6796 -0.023 -0.0379 -0.987 0.9880 -1.7573 5.1931 0.4445 5.5004 4.3448 180.7855 208.4137 0.0000 LOW
2019-03-10 08:13:54 26.8000 84187.0000 1535.8509 84184.0000 59.0000 23.7735 920.1300 57.1427 -66.6584 -31.4358 -2.799 73.7522 -0.0202 -0.0391 -0.9856 0.9866 0.0753 1.8315 -0.7761 1.9906 3.3286 181.0796 207.7985 0.0000 LOW
2019-03-10 08:13:56 26.8000 84187.0000 1535.8509 84189.0000 59.0000 23.7735 920.1400 57.3934 -67.2556 -31.4787 -2.5408 74.3013 -0.019 -0.0412 -0.9868 0.9878 1.2957 -0.0024 -0.165 1.3062 2.7059 181.5309 207.2383 0.0000 LOW
2019-03-10 08:13:59 26.8000 84177.0000 1535.5607 84191.0000 59.0000 23.8690 920.1400 57.1213 -66.6392 -31.7898 -2.4488 73.8740 -0.0012 -0.0343 -0.9793 0.9799 -10.3264 5.4689 2.8728 12.0331 1.3793 182.4739 207.1522 0.0000 LOW
2019-03-10 08:14:01 26.8000 84191.0000 1535.2705 84179.0000 26.9000 23.7162 841.7300 56.4978 -66.7546 -31.6973 -3.0729 73.9617 -0.0074 -0.0482 -0.986 0.9872 0.0601 1.193 -3.8452 4.0265 1.0147 182.557 207.0843 0.0000 LOW
2019-03-10 08:14:03 26.8000 84184.0000 1535.4640 84191.0000 26.9000 23.7544 920.1700 56.2593 -66.5926 -31.169 -3.1908 73.5953 -0.0081 -0.0495 -0.9863 0.9876 2.8086 2.4137 1.3471 3.9407 0.743 182.4005 207.027 0.0000 LOW
2019-03-10 08:14:06 26.8000 84191.0000 1535.5607 84195.0000 59.0000 23.7544 920.1700 58.2676 -66.5931 -31.4066 -2.193 73.6602 -0.0062 -0.0502 -1.0487 1.0499 4.0296 1.802 0.1262 4.4160 0.5362 182.4789 206.6352 0.0000 LOW
2019-03-10 08:14:08 26.8000 84196.0000 1535.4640 84185.0000 26.9000 23.6971 841.7900 56.7240 -66.8258 -31.2282 -3.0915 73.8271 -0.0081 -0.0468 -0.9841 0.9852 0.9747 -0.6422 -1.3998 1.8226 0.4747 182.6507 206.3984 0.0000 LOW
2019-03-10 08:14:10 26.8000 84178.0000 1536.1411 84188.0000 26.9000 23.8117 920.0700 57.0969 -66.5872 -31.3705 -2.9233 73.6648 -0.0069 -0.0499 -0.9868 0.9881 0.3627 3.0221 -2.3148 3.8240 0.2897 182.8066 206.1606 0.0000 LOW
2019-03-10 08:14:13 26.8000 84179.0000 1535.2705 84186.0000 59.0000 23.8117 920.0700 57.1213 -66.4889 -31.2819 -2.8648 73.5360 -0.0069 -0.0482 -0.9268 0.9281 0.3622 0.578 -1.0923 1.2878 0.2407 182.7083 206.1174 0.0000 LOW
2019-03-10 08:14:15 26.8000 84189.0000 1535.6574 84193.0000 26.9000 23.7162 841.8900 57.8733 -66.6951 -31.225 -2.7094 73.6925 -0.0072 -0.0504 -0.9865 0.9878 0.3619 0.2725 0.4353 0.6283 0.1495 183.185 205.8086 0.0000 LOW
2019-03-10 08:14:17 26.8000 84194.0000 1535.0771 84198.0000 26.9000 23.8308 841.8900 56.9929 -66.4962 -31.0832 -2.3566 73.4402 -0.0062 -0.0492 -0.986 0.9872 0.3617 1.4942 0.7417 1.7069 0.2486 183.2217 205.6586 0.0000 LOW
2019-03-10 08:14:20 26.8000 84207.0000 1534.7869 84201.0000 59.0000 23.7735 920.2600 56.2196 -66.6022 -30.8618 -2.9745 73.4653 -0.0074 -0.0499 -0.9875 0.9888 0.9718 -1.8658 -1.0901 2.3694 359.8841 183.052 205.6413 0.0000 LOW
2019-03-10 08:14:22 26.9000 84196.0000 1535.4640 84185.0000 59.0000 23.8881 920.0100 57.0846 -67.1222 -31.4137 -3.4186 74.1883 -0.0077 -0.0482 -0.9873 0.9885 0.361 0.8826 -2.3108 2.4998 359.8638 182.8567 205.5725 0.0000 LOW
2019-03-10 08:14:24 26.9000 84216.0000 1533.6263 84214.0000 59.0000 23.7735 920.0100 56.7362 -66.3752 -31.1516 -2.7374 73.3729 -0.0079 -0.048 -0.9863 0.9875 1.2756 -1.2572 -1.3941 2.2696 359.7557 182.8651 205.5661 0.0000 LOW
2019-03-10 08:14:27 26.9000 84216.0000 1532.9494 84217.0000 26.9000 23.8881 842.1300 56.8309 -66.7465 -31.1672 -2.378 73.7031 -0.0072 -0.049 -0.9865 0.9877 0.0541 1.1866 -1.0875 1.6105 359.8518 182.7394 205.5923 0.0000 LOW
2019-03-10 08:14:29 26.9000 84219.0000 1532.9494 84223.0000 26.9000 23.8499 842.1300 57.0663 -66.9861 -30.9697 -2.5038 73.8412 -0.0072 -0.0495 -0.9863 0.9876 -0.2517 0.5761 -2.6138 2.6883 0.1405 182.8316 205.5719 0.0000 LOW
2019-03-10 08:14:31 26.9000 84225.0000 1532.3692 84220.0000 59.1000 23.8308 920.5700 58.8086 -66.6406 -31.389 -2.1425 73.6942 -0.0064 -0.0487 -0.9865 0.9877 -0.5572 -0.9516 -1.3922 1.7760 0.0367 182.8023 205.3397 0.0000 LOW
2019-03-10 08:14:34 26.9000 84216.0000 1532.6593 84219.0000 59.1000 23.8308 920.6000 56.7790 -66.8184 -31.0942 -1.9929 73.7260 -0.0072 -0.0492 -0.9856 0.9869 0.3598 1.186 -1.6972 2.1016 0.1233 182.8796 205.2638 0.0000 LOW
2019-03-10 08:14:36 26.9000 84219.0000 1535.9476 84220.0000 59.1000 23.7735 920.6000 54.9633 -66.7742 -31.574 -1.9305 73.8880 -0.0074 -0.0478 -0.9868 0.9880 0.3596 -0.9522 -3.2235 3.3804 0.1513 182.8713 205.3751 0.0000 LOW
2019-03-10 08:14:39 26.9000 84222.0000 1531.8857 84227.0000 26.9000 23.7735 842.1900 56.8982 -66.8411 -31.1606 -2.1271 73.7783 -0.0052 -0.0482 -0.9289 0.9302 1.5808 0.8793 -0.169 1.8168 0.3299 182.9631 205.442 0.0000 LOW
2019-03-10 08:14:41 26.9000 84225.0000 1531.3055 84220.0000 26.9000 23.7735 842.1900 57.0632 -66.2499 -30.9036 -2.0061 73.1307 -0.0067 -0.0478 -0.987 0.9882 0.3593 -0.9537 -2.6119 2.8037 0.1353 182.9973 205.1672 0.0000 LOW
2019-03-10 08:14:43 26.9000 84223.0000 1532.0791 84217.0000 59.1000 23.8117 920.5400 56.9165 -66.7522 -30.6199 -2.3715 73.4783 -0.0069 -0.0487 -0.9851 0.9863 0.0534 -0.3434 0.1376 0.3738 0.1136 183.1643 205.2128 0.0000 LOW
2019-03-10 08:14:45 26.9000 84213.0000 1533.2395 84223.0000 59.1000 23.8499 920.5400 56.8860 -66.4727 -31.1307 -2.7241 73.4518 -0.0064 -0.0485 -1.049 1.0501 1.2751 -0.0379 0.1378 1.2831 0.1571 183.1732 205.3741 0.0000 LOW
2019-03-10 08:14:48 26.9000 84230.0000 1531.6923 84219.0000 59.1000 23.8499 920.4800 56.7454 -66.9139 -31.4182 -1.6792 73.9418 -0.0069 -0.0502 -0.9865 0.9878 0.0532 -0.0381 -2.3054 2.3063 0.037 183.0148 205.1393 0.0000 LOW
2019-03-10 08:14:50 26.9000 84216.0000 1532.5626 84223.0000 59.1000 23.8881 920.4800 57.2191 -66.6174 -31.1739 -2.5724 73.5956 -0.0072 -0.0485 -0.9863 0.9875 -1.4738 1.4891 -0.7781 2.2349 0.014 182.9195 205.0788 0.0000 LOW
2019-03-10 08:14:52 26.9000 84222.0000 1532.4659 84224.0000 59.1000 23.8690 920.5400 57.1183 -66.4328 -31.5985 -2.2949 73.6006 -0.0072 -0.049 -0.9868 0.9880 0.0533 0.2666 -0.4728 0.5454 0.0341 182.8033 204.877 0.0000 LOW
2019-03-10 08:14:55 26.9000 84217.0000 1532.9494 84230.0000 59.1000 23.8690 920.5400 56.9379 -66.5902 -31.0734 -1.5814 73.5004 -0.0047 -0.049 -0.9868 0.9880 1.2742 1.1829 -1.3897 2.2258 0.2394 183.0547 204.9906 0.0000 LOW
2019-03-10 08:14:57 26.9000 84224.0000 1531.5956 84228.0000 59.1000 23.8690 920.5400 57.2925 -66.6146 -31.0181 -2.7064 73.5320 -0.0059 -0.0499 -0.9868 0.9881 -0.8634 0.8771 1.6645 2.0701 0.2648 182.8853 205.0514 0.0000 LOW
2019-03-10 08:14:59 26.9000 84222.0000 1532.4659 84222.0000 59.1000 23.8881 920.5400 57.0724 -66.4883 -31.2292 -2.7799 73.5098 -0.0052 -0.0487 -0.9873 0.9885 0.6631 -0.0402 -0.4728 0.8154 359.9382 183.0563 205.0879 0.0000 LOW
2019-03-10 08:15:02 26.9000 84225.0000 1532.7560 84225.0000 59.0000 23.8690 920.5100 57.3383 -66.7853 -31.4031 -2.6518 73.8476 -0.0059 -0.0456 -0.9858 0.9869 0.9682 -0.6516 1.0549 1.5732 359.9801 182.9961 205.2749 0.0000 LOW
2019-03-10 08:15:04 26.9000 84217.0000 1532.7560 84220.0000 59.0000 23.8881 920.4500 56.9104 -66.6771 -31.9837 -3.0752 74.0152 -0.0072 -0.0509 -0.9882 0.9895 0.0514 0.2649 -2.3041 2.3198 359.8026 182.9841 205.4948 0.0000 LOW
2019-03-10 08:15:06 26.9000 84221.0000 1532.8527 84219.0000 59.0000 23.8881 920.4500 56.5772 -66.5414 -31.7278 -2.0064 73.7458 -0.0072 -0.0509 -0.987 0.9883 0.9673 1.4869 -1.3882 2.2525 359.9685 183.0758 205.4976 0.0000 LOW
2019-03-10 08:15:08 26.9000 84210.0000 1534.0132 84208.0000 59.0000 23.8499 920.4500 57.5309 -66.8319 -31.2596 -2.2765 73.8163 -0.0077 -0.0499 -0.986 0.9873 0.0508 0.2648 -0.7771 0.8225 0.0033 182.9756 205.3109 0.0000 LOW
2019-03-10 08:15:11 26.9000 84190.0000 1535.1738 84198.0000 59.0000 23.8881 920.0700 57.0143 -66.4893 -31.4696 -2.7852 73.6133 -0.0067 -0.0482 -1.049 1.0501 0.0509 0.5703 2.2775 2.3484 0.1231 182.8596 205.2975 0.0000 LOW
2019-03-10 08:15:13 26.9000 84218.0000 1533.0461 84213.0000 59.0000 23.8499 920.0700 56.9929 -66.7751 -31.5517 -3.0389 73.9166 -0.0081 -0.0466 -0.9848 0.9859 1.5778 -0.9567 0.1397 1.8505 0.135 182.7334 205.2841 0.0000 LOW
2019-03-10 08:15:15 26.9000 84222.0000 1532.1758 84228.0000 59.0000 23.8499 920.4500 57.0724 -66.8855 -31.2625 -2.1795 73.8631 -0.0067 -0.0473 -0.9882 0.9894 0.0504 0.8756 -0.4707 0.9954 0.0981 182.739 205.3043 0.0000 LOW
2019-03-10 08:15:18 26.9000 84216.0000 1531.9824 84223.0000 59.0000 23.9262 920.4500 56.8248 -66.9915 -31.281 -2.8686 73.9905 -0.0047 -0.0495 -0.9848 0.9861 2.187 0.5696 0.4459 2.3035 0.0813 182.823 205.2201 0.0000 LOW
2019-03-10 08:15:20 26.9000 84213.0000 1531.8857 84217.0000 59.0000 23.8117 920.3800 56.9410 -66.8401 -31.4965 -2.9599 73.9486 -0.0047 -0.0495 -0.9853 0.9866 1.2702 2.0951 -0.1647 2.4556 359.8302 182.7537 205.1494 0.0000 LOW
