# Date-Time   TempBMP180   PressBMP180   AltBMP180   Sealevel_PressBMP180   TempSH1   TempSH2   PressSH   HumSH   Bx   By   Bz   MF   Ax   Ay   Az   Acc   Gx   Gy   Gz   Gyr   pitch   roll   yaw   uv_raw   risk_level   cputemp   cpu_percent   mem_total   mem_available   mem_used   mem_free   mem_percent   disk_total   disk_used   disk_free   disk_percent 
2019-03-10 14:17:27 27.8000 77865.0000 2166.3518 77872.0000 0.0000 27.6493 0.0000 51.7874 -3.7053 -10.5809 -21.0277 23.8296 -0.0284 -0.157 -1.0208 1.0332 -66.7492 -120.8469 -38.742 143.3889 4.5902 190.5046 233.7199 0.0000 LOW
2019-03-10 14:17:29 27.8000 77871.0000 2165.6306 77868.0000 27.8000 27.6875 778.6400 50.4884 -17.0506 -27.2626 -44.6655 55.0362 -0.0402 -0.0642 -0.947 0.9500 -9.8236 49.4763 2.7459 50.5168 0.0437 192.505 235.0328 0.0000 LOW
2019-03-10 14:17:31 27.8000 77871.0000 2166.0427 77878.0000 27.8000 27.7448 778.6400 51.3228 -15.47 -27.7778 -46.2122 56.0936 -0.0111 -0.0627 -1.015 1.0170 49.8666 -29.6381 6.0787 58.3271 0.1153 188.6166 235.4383 0.0000 LOW
2019-03-10 14:17:34 27.8000 77864.0000 2166.0427 77876.0000 46.9000 27.7257 822.6100 53.2730 -15.0506 -27.7268 -47.4028 56.9414 -0.0156 -0.0827 -0.9887 0.9923 12.4188 -3.6395 5.6411 14.1172 2.6655 188.7461 235.5742 0.0000 LOW
2019-03-10 14:17:36 27.8000 77870.0000 2166.3518 77876.0000 46.9000 27.7257 822.6100 50.9102 -14.9624 -28.3078 -47.8679 57.5894 -0.0116 -0.0895 -0.9836 0.9877 9.657 -2.7614 3.5921 10.6671 2.8593 189.1315 235.9554 0.0000 LOW
2019-03-10 14:17:39 27.8000 77871.0000 2165.8366 77876.0000 46.9000 27.7257 822.6200 51.1333 -15.0105 -28.1739 -48.1496 57.7708 -0.0094 -0.0883 -0.9803 0.9843 27.7932 0.45 1.6915 27.8483 3.2201 189.6072 236.5424 0.0000 LOW
2019-03-10 14:17:41 27.8000 77877.0000 2165.7336 77878.0000 46.9000 27.7639 822.6200 51.2464 -14.4113 -27.6904 -49.0819 58.1677 -0.0222 -0.0608 -0.9726 0.9748 9.2263 5.8581 1.1748 10.9919 2.3314 189.9654 237.249 0.0000 LOW
2019-03-10 14:17:43 27.8000 77878.0000 2165.6306 77879.0000 46.9000 27.8211 822.6800 50.9010 -11.2979 -25.3264 -49.3201 56.5822 -0.0891 -0.131 -0.9759 0.9887 -45.3516 -5.2236 56.6276 72.7375 10.101 192.4338 242.8275 0.0000 LOW
2019-03-10 14:17:46 27.8000 77859.0000 2166.2488 77867.0000 46.9000 27.8021 822.6800 51.2770 -9.2606 -24.1186 -49.6765 55.9930 -0.0807 -0.0962 -0.9803 0.9883 9.0419 1.2301 -0.964 9.1760 7.3297 192.4865 245.9508 0.0000 LOW
2019-03-10 14:17:48 27.8000 77865.0000 2165.9397 77879.0000 46.9000 27.7830 822.6300 51.0600 -9.2881 -23.3721 -49.8371 55.8235 -0.0691 -0.0999 -0.9863 0.9938 -16.4348 -108.3595 -277.5579 298.4129 5.9633 193.0796 248.4758 0.0000 LOW
2019-03-10 14:17:50 27.8000 77868.0000 2165.8366 77885.0000 46.9000 27.8402 822.6300 51.0447 -8.6902 -23.2017 -50.6948 56.4252 -0.0839 -0.1153 -1.0174 1.0273 -85.5756 110.7655 4.0307 140.0301 10.0433 194.3219 250.7011 0.0000 LOW
2019-03-10 14:17:53 27.8000 77868.0000 2166.7640 77876.0000 46.9000 27.8211 822.7000 51.0141 -9.0876 -22.9141 -51.3632 56.9721 -0.0755 -0.1059 -0.9766 0.9852 5.7689 -0.4886 -1.8068 6.0649 7.5085 193.0954 251.0599 0.0000 LOW
2019-03-10 14:17:55 27.8000 77867.0000 2166.3518 77876.0000 46.9000 27.8021 822.7000 51.2770 -8.9853 -22.8035 -50.9221 56.5137 -0.0721 -0.1032 -0.9824 0.9904 15.4964 -0.6029 -2.1358 15.6545 7.0485 192.3749 251.7451 0.0000 LOW
2019-03-10 14:17:57 27.8000 77873.0000 2165.9397 77876.0000 46.9000 27.8975 822.5900 50.5067 -8.6378 -23.2281 -51.3092 56.9806 -0.0741 -0.0994 -0.9812 0.9890 -9.2089 4.1604 1.1687 10.1724 6.2465 191.8241 252.6738 0.0000 LOW
2019-03-10 14:18:00 27.8000 77870.0000 2165.7336 77870.0000 46.9000 27.8784 822.5900 50.8246 -8.6853 -22.9745 -49.6552 55.3977 -0.0758 -0.1006 -0.9836 0.9916 -4.157 -2.275 -2.2418 5.2423 5.2092 191.1435 253.2307 0.0000 LOW
2019-03-10 14:18:02 27.8000 77875.0000 2165.7336 77873.0000 46.9000 27.8784 822.5700 51.0966 -8.4922 -22.6128 -50.4884 55.9691 -0.0753 -0.1163 -0.9791 0.9889 -6.3601 7.5892 8.7904 13.2408 5.401 190.19 254.243 0.0000 LOW
2019-03-10 14:18:04 27.8000 77873.0000 2166.0427 77875.0000 46.9000 27.9548 822.5600 50.9897 -8.7341 -22.5624 -49.9259 55.4792 -0.0708 -0.1016 -0.982 0.9898 -1.0099 -0.5436 -3.4666 3.6514 5.0181 189.4497 254.6074 0.0000 LOW
2019-03-10 14:18:07 27.8000 77870.0000 2165.9397 77879.0000 46.9000 27.8784 822.5600 51.1119 -8.5166 -22.993 -50.5772 56.2073 -0.0686 -0.0979 -0.98 0.9873 2.0364 -0.8934 -2.0377 3.0162 4.8331 188.9241 255.1152 0.0000 LOW
2019-03-10 14:18:09 27.8000 77869.0000 2166.2488 77870.0000 46.9000 28.0121 822.5900 51.0752 -8.2594 -23.4252 -49.7539 55.6094 -0.0728 -0.102 -1.0468 1.0543 -8.8841 -14.2817 12.6828 21.0653 4.972 188.0965 255.3989 0.0000 LOW
2019-03-10 14:18:11 27.8000 77872.0000 2166.6609 77871.0000 46.9000 28.0312 822.5900 51.4573 -8.5282 -22.6035 -50.7146 56.1749 -0.0674 -0.0962 -0.9807 0.9877 6.042 -0.6735 -1.1851 6.1939 4.7378 187.104 255.6992 0.0000 LOW
2019-03-10 14:18:14 27.8000 77867.0000 2165.7336 77868.0000 27.8000 28.0884 778.6400 51.3167 -8.8698 -22.9078 -51.6707 57.2128 -0.0731 -0.0806 -1.0487 1.0543 12.6114 -3.4942 -2.966 13.4184 3.9049 185.6156 255.5209 0.0000 LOW
2019-03-10 14:18:16 27.8000 77873.0000 2166.0427 77870.0000 27.8000 27.9739 778.6400 50.9530 -8.6711 -22.9064 -50.1231 55.7872 -0.0627 -0.0999 -0.9793 0.9864 -2.6162 -0.9556 -1.037 2.9720 3.4005 186.5382 255.5244 0.0000 LOW
2019-03-10 14:18:18 27.8000 77871.0000 2165.7336 77874.0000 46.9000 28.0312 822.5400 51.0447 -8.5851 -22.9124 -50.9012 56.4767 -0.0639 -0.1003 -0.9817 0.9889 -0.6922 -5.6314 -0.2475 5.6792 3.3724 186.616 255.1772 0.0000 LOW
2019-03-10 14:18:21 27.8000 77870.0000 2165.7336 77878.0000 46.9000 28.0121 822.5700 50.8032 -8.2473 -22.928 -53.5712 58.8522 -0.0469 -0.0888 -0.9509 0.9562 0.5024 33.7621 3.6621 33.9638 6.4501 184.6953 256.0622 0.0000 LOW
2019-03-10 14:18:23 27.8000 77876.0000 2166.2488 77874.0000 46.9000 28.0503 822.5700 51.1975 -8.329 -23.1877 -52.2404 57.7590 -0.0351 -0.0883 -0.9612 0.9659 -56.7469 76.7177 -14.4709 96.5154 5.0729 181.3716 255.7768 0.0000 LOW
2019-03-10 14:18:25 27.8000 77867.0000 2166.2488 77869.0000 46.9000 28.0121 822.5700 50.6229 -13.1194 -28.0243 -43.3345 53.2481 -0.0652 -0.1469 -0.8769 0.8915 1046.9452 414.5741 1222.2258 1661.8670 49.9104 226.3482 184.6184 0.0000 LOW
2019-03-10 14:18:28 27.8000 77873.0000 2165.7336 77876.0000 46.9000 28.0312 822.5700 51.1425 -24.5911 -38.3659 -37.0627 58.7393 -0.0111 -0.1628 -0.9701 0.9837 64.8026 -18.3469 8.987 67.9467 40.5826 219.4568 184.554 0.0000 LOW
2019-03-10 14:18:30 27.8000 77876.0000 2166.2488 77870.0000 46.9000 28.0884 822.5700 50.5250 -18.8972 -38.1448 -40.8481 58.9974 -0.042 -0.1903 -0.9899 1.0089 -165.5024 39.8809 -30.5622 172.9612 26.8319 212.7188 195.4846 0.0000 LOW
2019-03-10 14:18:32 27.8000 77840.0000 2168.4128 77858.0000 46.9000 27.9548 822.4100 50.8796 -29.0269 -43.5708 -27.3364 59.0614 0.1845 -0.1836 -0.9 0.9369 -66.1528 -6.0063 627.3397 630.8465 24.1177 136.9657 87.7514 0.0000 LOW
2019-03-10 14:18:34 27.8000 77862.0000 2166.6609 77873.0000 46.9000 28.0694 822.4100 50.9071 -69.3471 -49.4414 -22.65 88.1277 -0.0629 -0.3085 -0.919 0.9714 18.0472 1.3314 6.2046 19.1304 35.0103 138.7384 100.3345 0.0000 LOW
2019-03-10 14:18:37 27.8000 77885.0000 2165.2185 77868.0000 46.9000 28.0503 822.5400 53.0040 -60.7679 -46.3771 -31.3971 82.6399 -0.061 -0.288 -0.9215 0.9674 86.971 51.2118 -37.4811 107.6635 42.4337 163.8015 131.7258 0.0000 LOW
2019-03-10 14:18:39 27.8000 77894.0000 2163.3642 77876.0000 46.9000 28.0884 822.5700 50.5556 -49.7446 -37.727 -34.8629 71.5072 0.0322 -0.2709 -0.9607 0.9987 -21.494 108.8229 7.0135 111.1468 34.9576 122.3914 135.0349 0.0000 LOW
2019-03-10 14:18:41 27.8000 77879.0000 2165.7336 77876.0000 46.9000 28.0503 822.5700 50.7818 -17.3633 -24.0303 -40.3005 50.0307 0.0739 -0.1105 -0.9668 0.9759 335.3283 -118.7592 50.1592 359.2558 57.9174 176.8455 219.0078 0.0000 LOW
2019-03-10 14:18:44 27.8000 77876.0000 2171.8143 77875.0000 27.9000 28.1457 778.7100 51.5918 -16.4961 -23.1219 -42.5473 51.1568 0.0262 -0.1722 -0.9726 0.9881 3.6013 5.7033 3.7381 7.7117 42.0832 175.8969 221.243 0.0000 LOW
2019-03-10 14:18:46 27.8000 77878.0000 2165.3215 77881.0000 27.9000 28.0121 778.7100 51.0202 -15.9668 -23.4717 -42.864 51.4119 0.0269 -0.1853 -0.9836 1.0013 -22.6959 6.5869 2.7007 23.7862 32.0698 174.5235 222.785 0.0000 LOW
2019-03-10 14:18:49 27.8000 77865.0000 2167.1762 77876.0000 46.9000 28.0884 822.6500 50.8368 -16.0819 -22.882 -42.9331 51.2393 0.0284 -0.1616 -0.9728 0.9865 8.6622 -1.8769 4.2963 9.8496 26.3968 177.5816 222.3536 0.0000 LOW
2019-03-10 14:18:51 27.8000 77882.0000 2165.0124 77876.0000 46.9000 28.1266 822.6500 51.3992 -15.92 -22.6919 -44.0574 52.0521 0.0308 -0.164 -0.9735 0.9877 6.9988 -6.0445 4.8017 10.4200 21.0115 181.4499 222.0355 0.0000 LOW
2019-03-10 14:18:53 27.8000 77882.0000 2165.2185 77881.0000 46.9000 28.1266 822.6200 50.9958 -16.0251 -23.3418 -43.4131 51.8299 0.0327 -0.1648 -0.974 0.9884 7.3086 -4.8703 0.1831 8.7846 16.7816 184.3088 221.7126 0.0000 LOW
2019-03-10 14:18:55 27.8000 77876.0000 2165.7336 77870.0000 46.9000 28.0884 822.6200 50.7298 -15.8305 -22.9479 -42.8977 51.1608 0.033 -0.1703 -0.9738 0.9891 28.7152 1.4907 0.4257 28.7570 12.6129 186.7353 221.4016 0.0000 LOW
2019-03-10 14:18:58 27.8000 77891.0000 2163.5702 77898.0000 46.9000 28.1075 822.8100 51.7538 -15.8489 -22.9195 -43.2859 51.4797 0.0526 -0.1455 -0.9489 0.9614 -13.1317 4.2767 33.4277 36.1683 6.3495 183.8538 222.3444 0.0000 LOW
2019-03-10 14:19:00 27.8000 77874.0000 2165.2185 77880.0000 46.9000 28.2030 822.8100 50.6473 -15.4383 -22.4348 -43.849 51.6178 0.0373 -0.1479 -0.9868 0.9985 23.9628 -21.6838 8.0666 33.3088 5.9458 189.2415 221.0766 0.0000 LOW
2019-03-10 14:19:02 27.8000 77873.0000 2165.3215 77878.0000 46.9000 28.2221 822.6100 51.3351 -15.4158 -22.3626 -44.7921 52.3838 0.0259 -0.1623 -0.9771 0.9908 -55.342 26.6906 -5.4668 61.6848 7.7763 201.4649 219.1394 0.0000 LOW
2019-03-10 14:19:05 27.8000 77876.0000 2165.5276 77880.0000 46.9000 28.2030 822.6100 50.8490 -15.5264 -21.6395 -44.9424 52.2413 0.0463 -0.1235 -0.9735 0.9824 -22.2316 24.2012 -11.9207 34.9578 6.4732 199.1661 219.3539 0.0000 LOW
2019-03-10 14:19:07 27.9000 77885.0000 2163.9822 77886.0000 46.9000 28.2030 822.6100 50.4578 -15.264 -21.1662 -45.0778 52.0865 0.0298 -0.18 -0.8998 0.9181 162.5387 282.5972 781.2878 846.5758 356.65 204.0616 181.1025 0.0000 LOW
2019-03-10 14:19:10 27.8000 77871.0000 2166.6609 77874.0000 27.9000 28.1648 778.6600 50.7115 -18.6141 -28.1366 -39.1699 51.6956 0.0718 -0.0929 -0.9723 0.9794 5.9938 13.0835 4.6387 15.1202 358.4845 200.4631 186.6811 0.0000 LOW
2019-03-10 14:19:12 27.9000 77881.0000 2165.8366 77874.0000 27.9000 28.1648 778.6600 51.0569 -22.5774 -34.2169 -37.8202 55.7755 0.0674 -0.1032 -0.8665 0.8752 -58.9224 82.4118 -23.5217 104.0040 350.7516 196.0552 196.7572 0.0000 LOW
2019-03-10 14:19:14 27.8000 77873.0000 2165.9397 77881.0000 46.9000 28.2030 822.5900 50.7910 -22.4261 -33.7628 -41.0932 57.7192 0.0756 -0.0786 -0.981 0.9870 1.053 -3.6816 2.0188 4.3288 351.2683 193.3843 203.9631 0.0000 LOW
2019-03-10 14:19:16 27.9000 77884.0000 2165.2185 77866.0000 46.9000 28.2221 822.5700 50.6748 -21.0154 -32.155 -43.8937 58.3288 0.0732 -0.0859 -0.9798 0.9863 4.8194 -11.0153 4.1744 12.7275 352.4384 194.7774 209.7729 0.0000 LOW
2019-03-10 14:19:19 27.8000 77875.0000 2166.6609 77872.0000 46.9000 28.2412 822.5700 51.2281 -21.0262 -32.0504 -43.985 58.3439 0.0737 -0.0825 -0.982 0.9882 -5.8509 -0.6252 3.726 6.9647 353.7706 192.9848 213.9707 0.0000 LOW
2019-03-10 14:19:21 27.8000 77868.0000 2166.1457 77871.0000 27.9000 28.1839 778.6500 51.3137 -20.2839 -32.0817 -44.3567 58.3797 0.0701 -0.0755 -0.9834 0.9888 -16.3387 -5.8958 -0.5014 17.3771 355.2885 191.7727 217.3808 0.0000 LOW
2019-03-10 14:19:23 27.9000 77875.0000 2165.9397 77869.0000 27.9000 28.1839 778.6500 50.6137 -18.9203 -27.9041 -47.4684 58.2226 0.0482 -0.1047 -0.9779 0.9847 -1.9473 0.7665 1.6514 2.6658 355.3881 189.227 219.5937 0.0000 LOW
2019-03-10 14:19:26 27.9000 77864.0000 2165.8366 77879.0000 46.9000 28.1075 822.5400 50.8918 -14.3157 -21.3275 -48.6403 55.0062 0.0284 -0.0996 -1.0424 1.0475 -31.7812 -43.9419 2.1613 54.2734 354.2199 179.2728 221.395 0.0000 LOW
2019-03-10 14:19:28 27.9000 77876.0000 2165.7336 77868.0000 46.9000 28.2603 822.4200 50.6779 -14.6759 -21.3659 -46.1069 52.8936 0.0453 -0.1645 -1.0051 1.0195 127.154 -194.9652 7.4097 232.8830 3.6697 167.0539 210.4633 0.0000 LOW
2019-03-10 14:19:30 27.8000 77870.0000 2166.5579 77869.0000 46.9000 28.3176 822.4200 50.9713 -13.4274 -22.4113 -45.1893 52.1980 0.0267 -0.1638 -0.9578 0.9721 -90.8143 61.3085 -16.2851 110.7753 9.3406 178.5179 212.0716 0.0000 LOW
2019-03-10 14:19:33 27.9000 77864.0000 2166.3518 77877.0000 46.9000 28.2030 822.4200 50.8368 -14.6455 -23.602 -43.0124 51.2017 0.0298 -0.1944 -0.9644 0.9842 4.3778 2.3308 -0.1934 4.9634 7.1683 182.1569 214.5198 0.0000 LOW
2019-03-10 14:19:35 27.8000 77861.0000 2165.9397 77875.0000 46.9000 28.2412 822.5700 50.8215 -17.4558 -24.871 -43.1802 52.7996 0.0339 -0.1937 -0.9709 0.9906 7.5991 -1.6165 0.1377 7.7704 5.0661 184.7605 215.7345 0.0000 LOW
2019-03-10 14:19:37 27.9000 77868.0000 2165.7336 77876.0000 46.9000 28.2221 822.5700 50.5495 -17.4134 -24.5779 -42.5031 52.0943 0.0318 -0.1911 -0.9718 0.9909 5.2459 -3.3956 -1.2232 6.3676 2.9121 186.4747 216.5709 0.0000 LOW
2019-03-10 14:19:40 27.8000 77874.0000 2165.4245 77872.0000 46.9000 28.3367 822.5400 50.5739 -17.6923 -24.4759 -43.0567 52.5925 0.0339 -0.1959 -0.9665 0.9867 8.5216 -4.0947 0.7361 9.4829 2.0056 187.8456 217.1751 0.0000 LOW
2019-03-10 14:19:42 27.9000 77874.0000 2165.7336 77868.0000 46.9000 28.2030 822.5400 51.6285 -17.7208 -25.1666 -42.8096 52.7261 0.0308 -0.1988 -0.968 0.9887 1.877 -0.1626 0.1511 1.8901 1.3977 189.2355 217.5394 0.0000 LOW
2019-03-10 14:19:44 27.9000 77869.0000 2165.1154 77876.0000 46.9000 28.1648 822.5400 50.4731 -17.745 -25.2491 -43.1396 53.0417 0.0291 -0.198 -0.9685 0.9890 1.339 -1.7997 2.6592 3.4790 0.9633 190.341 218.0362 0.0000 LOW
2019-03-10 14:19:47 27.8000 77875.0000 2166.7640 77878.0000 27.9000 28.1839 778.7100 50.8735 -17.9183 -24.4991 -43.52 53.0590 0.0308 -0.1997 -0.9701 0.9909 4.5076 0.1834 2.592 5.2029 0.449 191.133 218.1608 0.0000 LOW
2019-03-10 14:19:49 27.9000 77878.0000 2165.6306 77877.0000 27.9000 28.2603 822.5100 50.0176 -17.9573 -24.6422 -42.5519 52.3485 0.0366 -0.1978 -0.946 0.9672 21.7315 7.4705 -2.897 23.1616 358.0138 188.4409 218.3837 0.0000 LOW
2019-03-10 14:19:51 27.9000 77883.0000 2164.4973 77891.0000 46.9000 28.1839 822.5100 50.1154 -17.9239 -25.7184 -42.5222 52.8284 -0.0 -0.2272 -0.9694 0.9957 14.9696 23.9994 32.4776 43.0680 353.1027 164.5307 222.6412 0.0000 LOW
2019-03-10 14:19:54 27.9000 77875.0000 2166.7640 77876.0000 46.9000 28.2985 822.5100 50.6106 -18.6685 -26.963 -42.1437 53.4004 0.0051 -0.2067 -0.9844 1.0059 406.5627 1.0615 -5.4969 406.6012 354.3667 178.8328 222.3048 0.0000 LOW
2019-03-10 14:19:56 27.9000 77899.0000 2162.0252 77890.0000 46.9000 28.3557 822.6800 50.5862 -18.0408 -26.7061 -41.8523 52.8233 0.0485 -0.384 -0.8607 0.9437 221.1651 155.6104 86.4383 283.9017 51.7547 65.6824 222.097 0.0000 LOW
2019-03-10 14:19:58 27.9000 77885.0000 2166.5579 77877.0000 46.9000 28.1839 822.6800 51.4940 -17.522 -23.918 -41.6486 51.1243 0.0747 -0.4291 -0.8137 0.9229 -82.2301 17.6792 14.0619 85.2765 18.7068 181.6565 224.9039 0.0000 LOW
2019-03-10 14:20:00 27.9000 77866.0000 2166.7640 77868.0000 46.9000 28.3367 822.4800 50.7879 -19.3808 -25.6565 -36.6899 48.7855 -0.0012 -0.3112 -0.9658 1.0147 -35.4616 -16.2281 25.656 46.6809 14.4454 186.9751 220.6385 0.0000 LOW
2019-03-10 14:20:03 27.9000 77871.0000 2165.9397 77873.0000 46.9000 28.2794 822.4800 50.7543 -21.0428 -27.0838 -31.7745 46.7541 0.0126 -0.4931 -0.8887 1.0164 -16.8249 20.1137 20.76 33.4457 14.6688 191.5026 215.8705 0.0000 LOW
2019-03-10 14:20:05 27.9000 77877.0000 2165.9397 77876.0000 46.9000 28.2412 822.4800 50.5617 -28.7057 -27.6619 -29.0657 49.3357 0.0116 -0.4185 -0.8978 0.9906 -4.2983 -0.6564 1.2108 4.5136 10.4177 193.476 213.2828 0.0000 LOW
2019-03-10 14:20:08 27.9000 77871.0000 2165.5276 77874.0000 27.9000 28.2603 778.6800 49.8190 -27.3911 -27.4135 -30.0452 49.0356 0.0138 -0.4086 -0.8894 0.9789 -5.8215 -2.4887 2.7347 6.8965 7.4906 195.2187 211.3157 0.0000 LOW
2019-03-10 14:20:10 27.9000 77869.0000 2166.5579 77874.0000 27.9000 28.2221 778.6800 50.5831 -24.8666 -29.0791 -29.9525 48.5911 0.0458 -0.2803 -0.9509 0.9924 -36.3227 10.932 -7.0396 38.5798 5.5837 193.7405 210.127 0.0000 LOW
2019-03-10 14:20:12 27.9000 77876.0000 2165.7336 77871.0000 46.9000 28.3748 822.4500 50.5892 -17.2891 -31.2453 -31.7758 47.8005 0.0335 -0.3146 -0.9342 0.9863 2.4661 -3.7271 -0.6271 4.5129 4.3312 194.7007 213.3356 0.0000 LOW
2019-03-10 14:20:15 27.9000 77874.0000 2166.0427 77874.0000 46.9000 28.2603 822.4500 50.4792 -20.956 -30.2551 -32.7948 49.2953 0.0199 -0.3491 -0.9205 0.9847 -14.627 3.901 3.3465 15.5037 2.4783 195.4347 215.253 0.0000 LOW
2019-03-10 14:20:17 27.9000 77865.0000 2166.2488 77876.0000 46.9000 28.3176 822.4800 51.4268 -19.7374 -29.7857 -33.9897 49.3158 0.0218 -0.3375 -0.9241 0.9840 -12.7933 7.8676 -1.2356 15.0697 1.5505 197.3166 215.4249 0.0000 LOW
2019-03-10 14:20:19 27.9000 77873.0000 2165.7336 77873.0000 46.9000 28.4130 822.4800 50.7451 -19.9875 -30.3026 -33.6012 49.4650 0.0267 -0.3322 -0.9282 0.9862 -5.764 -0.9924 0.9032 5.9181 0.0447 197.6208 216.2233 0.0000 LOW
2019-03-10 14:20:22 27.9000 77872.0000 2165.9397 77874.0000 46.9000 28.2221 822.4500 50.8643 -19.6071 -30.0992 -33.8102 49.3308 0.0204 -0.3334 -0.9277 0.9860 -2.7078 -0.381 0.5971 2.7989 359.8344 197.71 216.9621 0.0000 LOW
2019-03-10 14:20:24 27.9000 77873.0000 2165.9397 77868.0000 46.9000 28.3367 822.4500 50.6351 -18.7716 -30.4389 -33.1677 48.7750 0.0189 -0.3343 -0.9202 0.9792 8.2807 -0.3802 3.9552 9.1847 359.5128 200.3879 217.6838 0.0000 LOW
2019-03-10 14:20:26 27.9000 77875.0000 2165.7336 77877.0000 46.9000 28.2603 822.4900 52.5363 -18.301 -30.4813 -32.3874 48.0934 0.0187 -0.3302 -0.9316 0.9886 -5.461 -1.5987 1.8151 5.9727 359.7467 199.5797 218.5775 0.0000 LOW
2019-03-10 14:20:28 27.9000 77876.0000 2166.4549 77874.0000 46.9000 28.3176 822.4900 50.7115 -18.472 -30.3012 -34.1226 49.2314 0.0175 -0.3259 -0.9342 0.9896 -0.2686 -4.3455 2.424 4.9831 359.3598 199.5814 218.7076 0.0000 LOW
2019-03-10 14:20:31 27.9000 77877.0000 2165.4245 77876.0000 46.9000 28.2603 822.4800 50.5403 -19.2436 -29.9203 -34.551 49.5915 0.0155 -0.3257 -0.9296 0.9851 -5.152 2.0694 2.1159 5.9416 359.3156 198.6908 218.9316 0.0000 LOW
2019-03-10 14:20:33 27.9000 77874.0000 2165.7336 77875.0000 46.9000 28.2985 822.4500 52.9398 -18.8982 -29.6141 -34.7687 49.4267 0.0175 -0.3269 -0.9318 0.9876 -3.6222 0.2403 2.7262 4.5399 0.7024 198.8214 219.7777 0.0000 LOW
2019-03-10 14:20:35 27.9000 77873.0000 2165.5276 77880.0000 46.9000 28.3557 822.4500 51.0202 -18.6673 -29.6996 -34.4652 49.1771 0.0167 -0.3264 -0.9306 0.9863 -0.2596 0.8518 1.8077 2.0151 0.5176 198.5059 219.7581 0.0000 LOW
2019-03-10 14:20:38 27.9000 77868.0000 2165.9397 77877.0000 46.9000 28.4130 822.3900 49.8373 -19.2366 -29.8455 -34.4015 49.4395 0.0184 -0.3273 -0.9268 0.9831 1.2624 0.5495 0.2801 1.4050 0.6079 198.7549 219.8986 0.0000 LOW
2019-03-10 14:20:40 27.9000 77865.0000 2167.0731 77860.0000 46.9000 28.1839 822.3900 51.2006 -19.0168 -29.4472 -34.7092 49.3306 0.0175 -0.3288 -0.9335 0.9899 -3.0115 -2.1994 3.6387 5.2102 0.4435 198.8439 219.738 0.0000 LOW
2019-03-10 14:20:42 27.9000 77872.0000 2165.8366 77874.0000 46.9000 28.2603 822.4800 50.2652 -19.1709 -30.2277 -34.841 49.9513 0.0165 -0.3295 -0.9282 0.9851 -6.3694 1.465 0.2777 6.5416 359.9606 199.541 219.4851 0.0000 LOW
2019-03-10 14:20:45 27.9000 77872.0000 2165.6306 77873.0000 46.9000 28.4321 822.4800 49.6294 -19.0688 -30.1003 -34.7972 49.8045 0.0172 -0.3259 -0.9328 0.9882 -0.5621 -3.4223 1.4984 3.7780 359.5199 198.7517 219.3593 0.0000 LOW
2019-03-10 14:20:47 27.9000 77872.0000 2165.7336 77866.0000 27.9000 28.3367 778.6300 50.4792 -18.8247 -30.3407 -34.9418 49.9586 0.017 -0.3276 -0.9347 0.9906 -3.0031 -3.7276 -0.9467 4.8795 359.7536 198.6698 219.4166 0.0000 LOW
2019-03-10 14:20:49 27.9000 77871.0000 2165.7336 77875.0000 27.9000 28.3176 778.6300 50.4303 -19.2873 -30.3354 -34.6276 49.9130 0.0141 -0.3348 -0.982 1.0376 -11.5558 10.6261 3.9403 16.1857 359.6124 198.4675 219.855 0.0000 LOW
2019-03-10 14:20:52 27.9000 77865.0000 2165.7336 77869.0000 46.9000 28.3557 822.3900 50.5006 -18.5326 -30.2216 -34.2992 49.3279 -0.0054 -0.3165 -0.9735 1.0237 -0.8614 -18.3887 -1.558 18.4747 359.7973 199.323 220.1533 0.0000 LOW
2019-03-10 14:20:54 27.9000 77870.0000 2166.4549 77876.0000 46.9000 28.3367 822.3900 50.5036 -18.7152 -30.0499 -34.671 49.5513 0.0175 -0.3249 -0.9304 0.9857 4.0227 -3.4209 1.4961 5.4884 359.6239 199.4242 220.4854 0.0000 LOW
2019-03-10 14:20:56 27.9000 77876.0000 2166.4549 77875.0000 46.9000 28.4130 822.4200 50.6412 -18.4426 -30.4007 -34.4859 49.5339 0.0155 -0.3266 -0.927 0.9830 -3.002 -0.3648 2.1055 3.6849 359.7873 199.2478 220.5284 0.0000 LOW
2019-03-10 14:20:59 27.9000 77868.0000 2166.1457 77876.0000 46.9000 28.3557 822.4200 52.0992 -18.7088 -29.936 -35.0926 49.7762 0.0162 -0.3259 -0.933 0.9884 -2.0838 -0.9743 2.1039 3.1174 359.9518 199.0962 220.4421 0.0000 LOW
2019-03-10 14:21:01 27.9000 77865.0000 2167.3823 77867.0000 46.9000 28.3367 822.3600 50.5831 -18.5313 -30.5023 -34.946 49.9502 0.0162 -0.3269 -0.9294 0.9853 -2.9976 -1.2799 1.4919 3.5846 359.8476 198.9229 220.6278 0.0000 LOW
2019-03-10 14:21:03 27.9000 77868.0000 2166.4549 77876.0000 46.9000 28.2985 822.3600 50.5342 -18.3328 -30.6686 -34.2472 49.4927 0.0155 -0.3271 -0.9304 0.9863 -0.8572 -0.0578 3.6286 3.7289 359.818 198.6902 220.8779 0.0000 LOW
2019-03-10 14:21:06 27.9000 77874.0000 2166.1457 77866.0000 46.9000 28.2603 822.3600 50.2347 -18.011 -30.3434 -34.512 49.3578 0.016 -0.3266 -0.9296 0.9854 -2.3827 -3.7221 2.4053 5.0316 359.5623 198.3303 221.033 0.0000 LOW
2019-03-10 14:21:08 27.9000 77869.0000 2166.4549 77869.0000 46.9000 28.3176 822.3600 50.4914 -18.2821 -30.2421 -34.652 49.4932 0.016 -0.3261 -0.9304 0.9860 -3.2961 1.1648 4.5411 5.7308 359.3809 198.1225 220.7998 0.0000 LOW
2019-03-10 14:21:10 27.9000 77870.0000 2165.9397 77872.0000 46.9000 28.3367 822.3600 51.0997 -18.3294 -30.1086 -35.0721 49.7247 0.0172 -0.3269 -0.9287 0.9847 -1.1573 2.3881 1.4855 3.0412 359.8435 198.4716 220.747 0.0000 LOW
2019-03-10 14:21:13 27.9000 77868.0000 2166.4549 77868.0000 46.9000 28.5085 822.3600 50.3447 -18.5975 -30.3413 -34.2379 49.3831 0.0172 -0.3276 -0.9335 0.9895 -1.7658 0.2507 1.4837 2.3200 359.7393 198.4746 220.7863 0.0000 LOW
2019-03-10 14:21:15 27.9000 77875.0000 2166.4549 77869.0000 46.9000 28.3939 822.3600 50.7329 -18.3001 -30.1549 -35.0706 49.7409 0.0082 -0.3351 -0.9325 0.9909 -2.9833 5.1298 -0.3489 5.9445 0.1671 198.4809 219.6523 0.0000 LOW
2019-03-10 14:21:17 27.9000 77868.0000 2165.8366 77868.0000 46.9000 28.3939 822.3600 50.7054 -18.5557 -30.4653 -35.0375 50.0007 0.0165 -0.3273 -0.9301 0.9861 -0.2304 -1.8958 1.1763 2.2429 359.9766 198.3619 219.7609 0.0000 LOW
2019-03-10 14:21:19 27.9000 77869.0000 2166.5579 77875.0000 46.9000 28.4130 822.3600 50.5220 -18.4934 -30.1499 -34.5214 49.4242 0.0158 -0.3266 -0.9313 0.9870 -1.7553 1.1594 1.7856 2.7593 0.0386 198.1904 220.084 0.0000 LOW
2019-03-10 14:21:22 27.9000 77868.0000 2165.7336 77871.0000 46.9000 28.3939 822.3600 50.7604 -18.5604 -30.609 -34.5673 49.7624 0.0179 -0.3257 -0.9323 0.9877 -1.7533 -1.2839 0.5623 2.2447 359.8553 198.3605 220.3965 0.0000 LOW
2019-03-10 14:21:24 27.9000 77870.0000 2166.7640 77869.0000 46.9000 28.3557 822.2700 50.4211 -18.167 -30.6177 -33.8856 49.1499 0.0179 -0.3252 -0.9321 0.9874 0.692 -0.3671 0.2556 0.8240 359.6481 198.2571 220.7706 0.0000 LOW
2019-03-10 14:21:26 27.9000 77870.0000 2166.4549 77869.0000 46.9000 28.3367 822.2700 50.3019 -18.0919 -30.6128 -34.3935 49.4709 0.0158 -0.3264 -0.9316 0.9873 -1.7497 -2.5044 -0.6619 3.1260 359.7475 198.3169 221.1175 0.0000 LOW
2019-03-10 14:21:29 27.9000 77875.0000 2165.7336 77876.0000 46.9000 28.4512 822.4200 50.4211 -17.9029 -30.2797 -34.3093 49.1376 0.016 -0.3266 -0.9309 0.9867 -2.0523 -1.2821 0.8644 2.5696 359.8245 198.4289 221.523 0.0000 LOW
2019-03-10 14:21:31 27.9000 77869.0000 2166.0427 77874.0000 46.9000 28.3939 822.4200 50.6198 -18.1318 -31.1934 -34.3467 49.8145 0.0141 -0.3278 -0.9333 0.9893 -3.2712 0.5507 0.8621 3.4274 359.8046 198.2133 221.6245 0.0000 LOW
2019-03-10 14:21:33 27.9000 77869.0000 2166.0427 77868.0000 46.9000 28.3748 822.3000 50.3875 -17.5232 -30.6899 -34.7177 49.5404 0.016 -0.3264 -0.9337 0.9892 -4.4901 -0.0595 1.7774 4.8295 359.8982 198.1791 221.8763 0.0000 LOW
2019-03-10 14:21:36 27.9000 77863.0000 2166.1457 77871.0000 46.9000 28.3176 822.2400 49.8312 -18.2678 -30.7512 -33.8912 49.2744 0.0145 -0.3269 -0.9304 0.9863 -3.5717 0.2464 1.1656 3.7652 359.7726 198.2568 221.9743 0.0000 LOW
2019-03-10 14:21:38 27.9000 77869.0000 2166.5579 77868.0000 46.9000 28.4130 822.2400 50.5403 -18.3446 -30.5553 -34.4075 49.5381 0.015 -0.3281 -0.9333 0.9894 -1.4319 -0.6695 0.2474 1.5999 359.6991 198.4452 221.8781 0.0000 LOW
2019-03-10 14:21:41 27.9000 77871.0000 2166.9701 77871.0000 27.9000 28.3748 778.6300 50.5892 -18.1845 -30.6456 -34.1054 49.3255 0.0143 -0.3276 -0.9296 0.9857 -3.2618 -0.058 -0.0588 3.2628 359.5409 198.1885 222.0248 0.0000 LOW
2019-03-10 14:21:43 27.9000 77867.0000 2166.4549 77869.0000 27.9000 28.3748 778.6300 49.8281 -18.0171 -31.021 -33.7299 49.2405 0.0167 -0.3269 -0.9316 0.9874 -4.4811 0.554 -0.06 4.5156 359.5002 198.2368 222.3521 0.0000 LOW
2019-03-10 14:21:45 27.9000 77868.0000 2166.7640 77870.0000 46.9000 28.3367 822.2700 50.4914 -18.0485 -31.1104 -33.4594 49.1237 0.016 -0.3283 -0.9333 0.9895 -1.4246 -0.6672 2.3823 2.8548 359.6049 198.3951 222.5438 0.0000 LOW
2019-03-10 14:21:47 27.9000 77863.0000 2165.7336 77869.0000 46.9000 28.5085 822.2700 50.6993 -17.8206 -30.7822 -33.8962 49.1332 0.016 -0.3259 -0.9337 0.9891 -3.2548 -0.9717 1.7698 3.8302 359.5701 198.1781 222.6553 0.0000 LOW
2019-03-10 14:21:50 27.9000 77871.0000 2166.2488 77873.0000 46.9000 28.3367 822.3000 50.4028 -18.3579 -30.8516 -34.3396 49.6794 0.0167 -0.3259 -0.9325 0.9880 -1.4195 -2.1929 2.379 3.5332 359.6073 198.1217 222.5869 0.0000 LOW
2019-03-10 14:21:52 27.9000 77865.0000 2166.7640 77862.0000 46.9000 28.4130 822.2100 50.5342 -17.7318 -30.5708 -34.8214 49.6137 0.0162 -0.3273 -0.9301 0.9861 -2.3334 -0.6646 1.7667 3.0013 359.7353 197.9653 222.804 0.0000 LOW
2019-03-10 14:21:54 27.9000 77867.0000 2166.7640 77870.0000 46.8000 28.3557 822.2100 50.2377 -17.6607 -30.7692 -33.9553 49.1081 0.0162 -0.3271 -0.9296 0.9856 -3.5529 -2.4962 1.7646 4.6870 359.6741 197.999 222.8754 0.0000 LOW
2019-03-10 14:21:57 27.9000 77866.0000 2166.7640 77870.0000 46.8000 28.3557 822.2100 50.5648 -17.901 -30.8562 -34.3128 49.4967 0.0138 -0.3278 -0.9289 0.9851 -1.7176 -1.8839 0.8457 2.6860 359.867 197.6805 222.9069 0.0000 LOW
2019-03-10 14:21:59 27.9000 77868.0000 2166.0427 77857.0000 46.9000 28.4703 822.1400 50.3294 -18.0512 -31.0637 -33.6957 49.2565 0.0158 -0.3257 -0.9316 0.9870 -2.9362 -0.0503 2.0661 3.5906 359.983 197.8709 223.221 0.0000 LOW
2019-03-10 14:22:01 27.9000 77868.0000 2165.9397 77867.0000 46.9000 28.3557 822.2400 50.5739 -17.8386 -30.7884 -32.6217 48.2734 0.0165 -0.3285 -0.9335 0.9898 -3.2398 -1.8832 1.1482 3.9193 359.9262 198.0792 223.2412 0.0000 LOW
2019-03-10 14:22:04 27.9000 77871.0000 2165.8366 77873.0000 46.9000 28.4703 822.2400 50.4364 -18.031 -30.4893 -33.0999 48.4801 0.0158 -0.3252 -0.9323 0.9875 -1.7104 -0.3552 2.0631 2.7033 359.9437 198.2109 223.0672 0.0000 LOW
2019-03-10 14:22:06 27.9000 77870.0000 2166.2488 77875.0000 46.9000 28.4894 822.2100 49.7670 -17.6015 -31.1371 -33.9177 49.2924 0.0172 -0.3264 -0.9292 0.9850 -3.8463 -1.5766 2.9775 5.1132 359.9733 198.2497 223.2862 0.0000 LOW
2019-03-10 14:22:08 27.9000 77866.0000 2166.4549 77883.0000 46.9000 28.3557 822.2100 50.1827 -17.8366 -30.9619 -33.883 49.2427 0.0148 -0.323 -0.9342 0.9886 -0.7903 2.0891 2.9764 3.7213 359.8296 198.0372 223.4611 0.0000 LOW
2019-03-10 14:22:11 27.9000 77867.0000 2166.1457 77875.0000 46.9000 28.4894 822.2100 50.3172 -18.0224 -30.6795 -34.149 49.3173 0.0145 -0.3288 -0.9313 0.9877 -2.01 -1.27 -1.3011 2.7103 359.3831 197.9261 223.3622 0.0000 LOW
2019-03-10 14:22:13 27.9000 77867.0000 2166.1457 77871.0000 46.9000 28.3748 822.2400 49.8067 -17.9714 -30.8275 -34.4675 49.6116 0.0155 -0.3273 -0.9311 0.9871 -1.7022 0.2578 0.5309 1.8016 359.3938 197.953 223.2588 0.0000 LOW
2019-03-10 14:22:15 27.9000 77870.0000 2165.5276 77870.0000 46.9000 28.3748 822.2400 50.3753 -18.2247 -31.096 -33.4966 49.2049 0.0177 -0.3254 -0.9313 0.9867 -1.7006 -0.3521 2.3625 2.9321 359.5783 198.138 223.4832 0.0000 LOW
2019-03-10 14:22:17 27.9000 77868.0000 2166.4549 77879.0000 46.8000 28.4703 822.4000 50.3569 -17.9031 -31.6573 -33.9426 49.7474 0.0145 -0.3266 -0.9335 0.9891 -2.0037 -0.9624 1.1399 2.4981 359.7073 198.1771 223.7329 0.0000 LOW
2019-03-10 14:22:20 27.9000 77866.0000 2166.0427 77873.0000 46.8000 28.3557 822.2100 51.0019 -17.7725 -31.1604 -34.1777 49.5474 0.0162 -0.3257 -0.9328 0.9882 -1.6964 -2.489 2.0549 3.6463 359.7338 198.3406 223.7338 0.0000 LOW
2019-03-10 14:22:22 27.9000 77875.0000 2167.2792 77870.0000 46.9000 28.4321 822.2100 50.3600 -17.5895 -30.9173 -34.5021 49.5547 0.0153 -0.3244 -0.9294 0.9845 -4.443 0.2603 2.9697 5.3504 359.6249 198.2973 224.0509 0.0000 LOW
2019-03-10 14:22:25 27.9000 77861.0000 2167.2792 77875.0000 28.0000 28.4703 778.7100 50.3844 -17.8598 -31.0123 -34.4537 49.6769 0.015 -0.3266 -0.9323 0.9880 -1.6922 -1.8774 1.4412 2.9095 359.4961 198.2793 224.0018 0.0000 LOW
2019-03-10 14:22:27 27.9000 77863.0000 2165.9397 77871.0000 28.0000 28.4321 822.2400 50.1888 -18.2881 -31.3199 -34.4381 50.0137 0.0155 -0.3257 -0.9292 0.9848 -1.6911 0.2616 -1.6134 2.3519 359.4847 198.3352 223.9609 0.0000 LOW
2019-03-10 14:22:29 27.9000 77866.0000 2166.6609 77868.0000 46.9000 28.3939 822.2400 50.3172 -18.2796 -30.7499 -34.1693 49.4696 0.0155 -0.3269 -0.9316 0.9874 2.8924 2.0944 0.8292 3.6661 359.5622 198.097 223.8403 0.0000 LOW
2019-03-10 14:22:32 27.9000 77870.0000 2166.0427 77870.0000 28.0000 28.4321 778.6200 50.5770 -17.8289 -31.2931 -34.9207 50.1656 0.0167 -0.3266 -0.9309 0.9867 -3.2147 -1.2649 -0.3932 3.4769 359.4259 198.1603 223.8165 0.0000 LOW
2019-03-10 14:22:34 27.9000 77867.0000 2166.2488 77872.0000 28.0000 28.4894 822.2100 50.0849 -17.5491 -30.8307 -34.6635 49.5990 0.016 -0.3249 -0.9306 0.9858 -1.9911 1.4842 0.5227 2.5378 359.2917 198.3127 223.7046 0.0000 LOW
2019-03-10 14:22:36 27.9000 77864.0000 2167.1762 77852.0000 46.8000 28.4703 822.2100 50.4272 -18.237 -31.3929 -34.0881 49.8006 0.0175 -0.3264 -0.9352 0.9907 -1.0735 0.2633 4.7963 4.9220 359.2149 198.6371 223.4915 0.0000 LOW
2019-03-10 14:22:39 27.9000 77865.0000 2166.5579 77870.0000 28.0000 28.4321 778.6100 50.5923 -18.2466 -31.288 -34.1291 49.7662 0.0167 -0.3266 -0.9316 0.9873 -2.5985 1.1795 2.6569 3.8990 359.2548 198.5002 223.5491 0.0000 LOW
2019-03-10 14:22:41 28.0000 77870.0000 2167.2792 77869.0000 28.0000 28.4894 822.1000 50.3050 -18.4456 -30.8822 -33.4393 49.1135 0.0167 -0.3283 -0.9313 0.9876 -2.2921 -1.5695 1.7397 3.2777 359.3174 198.6079 223.4397 0.0000 LOW
2019-03-10 14:22:43 27.9000 77871.0000 2166.3518 77870.0000 46.8000 28.5085 822.1000 49.9351 -18.2376 -30.7433 -33.721 49.1413 0.0145 -0.3257 -0.9309 0.9863 -1.3738 1.4848 2.3494 3.1003 359.5265 198.4975 223.3368 0.0000 LOW
2019-03-10 14:22:46 27.9000 77872.0000 2166.5579 77869.0000 46.8000 28.3939 822.0700 50.2683 -18.4109 -30.6643 -34.1533 49.4541 0.0155 -0.3264 -0.9263 0.9822 -1.6783 -3.4007 -1.0112 3.9248 359.4678 198.9153 223.1532 0.0000 LOW
2019-03-10 14:22:48 28.0000 77867.0000 2166.4549 77872.0000 46.8000 28.4703 822.0700 49.9107 -17.508 -30.2984 -34.2132 48.9394 0.017 -0.3257 -0.9335 0.9888 -3.8126 1.181 1.7352 4.3522 359.4172 198.7403 222.8357 0.0000 LOW
2019-03-10 14:22:50 28.0000 77870.0000 2165.5276 77877.0000 28.0000 28.4130 778.7000 50.4700 -18.4358 -30.5624 -33.5639 48.9946 0.0187 -0.3249 -0.9294 0.9847 -2.8947 1.4863 1.7342 3.6873 359.4171 199.0996 222.6908 0.0000 LOW
2019-03-10 14:22:53 28.0000 77867.0000 2166.5579 77872.0000 28.0000 28.4703 778.7000 50.4058 -18.3954 -31.2423 -34.0929 49.7674 0.0158 -0.3254 -0.9328 0.9881 -2.2816 0.2642 0.5111 2.3530 359.4773 198.554 222.7671 0.0000 LOW
2019-03-10 14:22:55 27.9000 77868.0000 2166.4549 77866.0000 46.8000 28.3748 822.1200 50.2591 -18.5378 -30.4207 -34.4471 49.5547 0.0172 -0.3254 -0.9292 0.9847 1.3855 -0.3455 1.1198 1.8146 359.3447 198.5046 222.4562 0.0000 LOW
2019-03-10 14:22:57 28.0000 77870.0000 2166.6609 77862.0000 46.8000 28.4703 822.0100 49.9748 -18.2223 -31.2363 -34.7738 50.1695 0.0158 -0.3254 -0.933 0.9882 -2.5832 -0.0391 0.2015 2.5913 359.3707 198.2939 222.4298 0.0000 LOW
2019-03-10 14:23:00 27.9000 77868.0000 2166.1457 77868.0000 46.8000 28.3557 822.0100 49.7700 -18.237 -31.8292 -34.7022 50.4968 0.0167 -0.3254 -0.9318 0.9871 1.0838 1.1831 1.4215 2.1436 359.636 198.2566 222.517 0.0000 LOW
2019-03-10 14:23:02 28.0000 77879.0000 2165.5276 77875.0000 28.0000 28.4512 778.7300 50.4181 -18.2041 -31.0867 -34.4866 49.8708 0.0165 -0.324 -0.9347 0.9894 -4.4113 -0.0385 4.4748 6.2837 359.6761 198.337 222.5043 0.0000 LOW
2019-03-10 14:23:04 27.9000 77867.0000 2166.7640 77867.0000 28.0000 28.4894 778.7300 49.6631 -18.2766 -30.5794 -34.1041 49.3176 0.016 -0.3249 -0.9318 0.9869 0.1718 -0.9544 -1.0248 1.4109 359.5487 198.4585 222.4784 0.0000 LOW
2019-03-10 14:23:07 28.0000 77870.0000 2165.7336 77872.0000 46.8000 28.4894 822.1300 50.0421 -18.4346 -30.5814 -34.6875 49.7823 0.0187 -0.3242 -0.9342 0.9890 0.4789 0.267 1.4186 1.5209 359.5168 198.0569 222.4405 0.0000 LOW
2019-03-10 14:23:09 28.0000 77872.0000 2166.0427 77865.0000 46.8000 28.4321 822.1300 50.3967 -19.0185 -30.543 -33.9411 49.4629 0.0162 -0.3242 -0.933 0.9879 -4.7114 -0.6495 3.2499 5.7603 359.5368 198.2452 222.0102 0.0000 LOW
2019-03-10 14:23:11 28.0000 77867.0000 2165.7336 77873.0000 46.8000 28.4321 822.1000 50.7115 -18.8748 -30.8923 -34.295 49.8672 0.0167 -0.3247 -0.934 0.9890 -2.2655 0.5722 2.027 3.0933 359.4532 198.1847 222.0093 0.0000 LOW
2019-03-10 14:23:13 28.0000 77873.0000 2166.6609 77868.0000 46.8000 28.5467 822.1000 50.7146 -18.3037 -30.9583 -34.7553 50.0137 0.0158 -0.3247 -0.9349 0.9898 -2.2633 -2.7866 2.0256 4.1220 359.6103 198.1184 222.4778 0.0000 LOW
2019-03-10 14:23:16 28.0000 77869.0000 2166.0427 77864.0000 46.8000 28.5085 822.0100 50.8001 -18.4231 -30.9923 -34.7737 50.0914 0.0165 -0.3261 -0.9325 0.9880 -1.6502 -0.9539 2.3301 3.0104 359.4776 198.0519 222.5803 0.0000 LOW
2019-03-10 14:23:18 28.0000 77853.0000 2166.4549 77871.0000 46.8000 28.4512 822.1000 50.2163 -18.0507 -30.5423 -33.9116 49.0781 0.0158 -0.3266 -0.9311 0.9868 -2.8701 1.1843 1.7177 3.5483 359.5224 198.2427 222.3199 0.0000 LOW
2019-03-10 14:23:21 28.0000 77871.0000 2166.5579 77869.0000 46.8000 28.5658 822.1000 50.9163 -18.0957 -30.5532 -33.9352 49.1177 0.0153 -0.3257 -0.9337 0.9890 -0.7305 -1.2586 1.7177 2.2513 359.3276 198.0322 222.2792 0.0000 LOW
2019-03-10 14:23:23 28.0000 77867.0000 2166.6609 77867.0000 46.8000 28.5467 822.0400 50.3905 -18.4566 -30.2978 -34.3526 49.3832 0.017 -0.3261 -0.9304 0.9860 -1.3398 -0.6477 3.2443 3.5693 359.3305 198.0934 222.124 0.0000 LOW
2019-03-10 14:23:25 28.0000 77873.0000 2166.6609 77869.0000 46.8000 28.4894 822.0400 51.2923 -18.4962 -30.992 -34.4011 49.8603 0.0167 -0.3271 -0.9323 0.9882 -3.4754 0.2685 1.715 3.8848 359.2587 198.0457 221.9344 0.0000 LOW
2019-03-10 14:23:27 28.0000 77865.0000 2166.5579 77871.0000 46.8000 28.5085 822.0400 50.4792 -18.103 -30.7897 -34.8458 49.8994 0.017 -0.3252 -0.9325 0.9877 0.4966 -0.3428 2.6302 2.6985 359.4147 198.5468 222.2722 0.0000 LOW
2019-03-10 14:23:30 28.0000 77867.0000 2166.5579 77872.0000 46.8000 28.3939 822.0700 50.3967 -18.2844 -31.1424 -34.3695 49.8541 0.0162 -0.3237 -0.9292 0.9841 -1.64 0.5734 4.4612 4.7876 359.3095 198.6722 222.4338 0.0000 LOW
2019-03-10 14:23:32 28.0000 77868.0000 2166.4549 77871.0000 46.8000 28.5849 822.0700 49.1190 -18.3788 -31.7988 -33.333 49.5987 0.0167 -0.3249 -0.9316 0.9868 -3.1657 -2.4812 1.406 4.2609 359.0422 198.6679 222.5532 0.0000 LOW
2019-03-10 14:23:34 28.0000 77864.0000 2166.3518 77861.0000 46.8000 28.4130 821.9700 51.2495 -17.9881 -31.5561 -33.4054 49.3486 0.0177 -0.3261 -0.9306 0.9862 0.806 -0.0378 1.4044 1.6197 359.1291 198.7106 222.9177 0.0000 LOW
2019-03-10 14:23:37 28.0000 77872.0000 2166.4549 77875.0000 46.8000 28.4512 822.0400 50.3294 -18.4072 -31.4051 -33.8016 49.6755 0.016 -0.3237 -0.9335 0.9882 -2.246 -0.3443 0.7928 2.4066 358.9578 198.8346 223.0278 0.0000 LOW
2019-03-10 14:23:39 28.0000 77865.0000 2166.9701 77868.0000 46.8000 28.4894 822.0400 50.4914 -18.4105 -31.4748 -34.5334 50.2212 0.0167 -0.3261 -0.9328 0.9883 -4.0758 -0.3431 0.1808 4.0942 358.8716 198.5338 223.3957 0.0000 LOW
2019-03-10 14:23:42 28.0000 77865.0000 2167.1762 77871.0000 46.8000 28.4894 822.1000 50.7268 -17.7765 -31.1821 -34.4523 49.7523 0.0153 -0.3244 -0.9316 0.9866 -1.6307 0.5734 1.4015 2.2253 358.8658 198.6151 223.4192 0.0000 LOW
2019-03-10 14:23:44 28.0000 77873.0000 2166.8670 77862.0000 46.8000 28.5085 822.1000 50.0115 -17.9915 -31.6304 -33.823 49.6807 0.0167 -0.3254 -0.9311 0.9865 -1.9346 0.8785 1.0956 2.3906 359.021 198.3863 223.5783 0.0000 LOW
2019-03-10 14:23:46 28.0000 77871.0000 2166.4549 77863.0000 46.8000 28.4703 821.9800 49.7272 -18.3492 -31.3223 -34.2566 49.9129 0.0172 -0.3266 -0.9306 0.9864 -1.6271 1.7954 -1.959 3.1159 359.0794 198.3825 223.4696 0.0000 LOW
2019-03-10 14:23:49 28.0000 77862.0000 2166.5579 77857.0000 46.8000 28.4703 821.9800 50.4761 -18.4956 -31.0515 -33.5249 49.2971 0.0184 -0.3269 -0.9323 0.9881 -1.6258 -0.3417 1.094 1.9892 359.2182 198.3739 223.4489 0.0000 LOW
2019-03-10 14:23:51 28.0000 77862.0000 2167.4853 77865.0000 28.0000 28.4894 778.5700 49.2871 -18.1713 -30.8929 -33.7532 49.2326 0.0165 -0.3264 -0.9333 0.9889 -1.3184 1.4906 -0.1286 1.9941 359.2682 198.4364 223.1387 0.0000 LOW
2019-03-10 14:23:53 28.0000 77868.0000 2166.4549 77879.0000 28.0000 28.4512 822.0400 49.6356 -18.4856 -30.9965 -34.679 50.0513 0.0143 -0.3273 -0.9304 0.9864 -3.7592 -0.9525 -0.1297 3.8802 359.4559 198.2774 222.9815 0.0000 LOW
2019-03-10 14:23:56 28.0000 77865.0000 2167.1762 77862.0000 46.8000 28.4703 822.0400 50.4456 -18.5665 -30.6747 -34.576 49.8112 0.0148 -0.3273 -0.9354 0.9911 -2.8405 -0.0356 2.0061 3.4777 359.4068 198.0844 222.6569 0.0000 LOW
2019-03-10 14:23:58 28.0000 77863.0000 2167.0731 77854.0000 28.0000 28.5085 778.4800 50.3355 -18.4287 -30.5788 -34.1498 49.4054 0.017 -0.3271 -0.9337 0.9895 -3.1442 -0.6459 0.7832 3.3040 359.5285 198.1483 222.4978 0.0000 LOW
2019-03-10 14:24:00 28.0000 77866.0000 2167.0731 77865.0000 28.0000 28.4894 778.4800 50.2438 -18.0679 -30.5422 -34.1442 49.2453 0.015 -0.3264 -0.9335 0.9890 -3.4472 2.1034 1.6981 4.3808 359.5976 198.1837 222.4381 0.0000 LOW
2019-03-10 14:24:03 28.0000 77865.0000 2166.8670 77862.0000 46.8000 28.4703 821.9200 50.2866 -18.5158 -30.8622 -34.8194 50.0769 0.0175 -0.3237 -0.9328 0.9875 -0.0855 -1.5617 2.3083 2.7883 359.4649 198.0895 222.375 0.0000 LOW
2019-03-10 14:24:05 28.0000 77857.0000 2166.8670 77871.0000 46.8000 28.4703 821.9200 50.0085 -18.1911 -31.1403 -34.112 49.6413 0.0153 -0.3261 -0.9337 0.9891 -0.9999 -0.6455 -0.1363 1.1979 359.5722 198.1025 222.5314 0.0000 LOW
2019-03-10 14:24:07 28.0000 77854.0000 2168.3097 77857.0000 46.8000 28.4703 821.8900 49.9320 -18.2721 -31.3506 -34.3935 49.9964 0.0177 -0.3257 -0.9309 0.9864 -2.2194 -0.0342 -1.0528 2.4567 359.5201 197.961 222.6987 0.0000 LOW
2019-03-10 14:24:09 28.0000 77860.0000 2167.4853 77866.0000 46.8000 28.5276 821.8900 50.4608 -18.0458 -31.0227 -33.8147 49.3102 0.017 -0.3259 -0.9277 0.9834 -2.5244 6.6847 2.6114 7.6077 359.9446 198.3753 223.0931 0.0000 LOW
2019-03-10 14:24:12 28.0000 77867.0000 2167.1762 77872.0000 46.8000 28.5467 821.8900 49.7364 -17.5753 -31.1288 -34.0077 49.3398 0.0165 -0.3271 -0.9309 0.9868 -4.0492 -1.867 0.4726 4.4839 359.5099 198.3777 223.1181 0.0000 LOW
2019-03-10 14:24:14 28.0000 77862.0000 2166.9701 77859.0000 28.0000 28.5276 778.4500 50.3661 -18.3894 -30.5927 -34.3523 49.5395 0.016 -0.3247 -0.9306 0.9857 -3.1299 -0.9497 0.7759 3.3616 359.5603 198.1135 222.8038 0.0000 LOW
2019-03-10 14:24:16 28.0000 77862.0000 2166.2488 77865.0000 28.0000 28.5085 778.4500 50.8704 -18.3083 -31.1279 -33.6927 49.3897 0.0153 -0.3278 -0.9289 0.9852 -2.2115 0.272 2.9122 3.6668 359.4663 198.513 222.7738 0.0000 LOW
2019-03-10 14:24:19 28.0000 77868.0000 2166.2488 77863.0000 46.8000 28.6040 821.7700 50.3447 -18.9493 -31.0 -34.4231 50.0502 0.016 -0.329 -0.9299 0.9865 -2.5144 -1.2543 1.9939 3.4454 359.6547 198.2935 222.5329 0.0000 LOW
2019-03-10 14:24:21 28.0000 77869.0000 2167.1762 77867.0000 46.8000 28.4130 821.7700 50.4731 -18.3801 -30.8629 -34.3991 49.7357 0.0165 -0.3252 -0.9301 0.9855 -1.9015 -0.3377 1.0761 2.2108 359.6811 198.194 222.3931 0.0000 LOW
2019-03-10 14:24:23 28.0000 77865.0000 2166.6609 77859.0000 46.8000 28.6040 821.8000 52.0962 -18.4206 -30.8035 -33.5245 49.1128 0.0155 -0.3283 -0.9347 0.9908 -2.2041 -0.642 2.6017 3.4697 359.6763 198.0384 222.4644 0.0000 LOW
2019-03-10 14:24:26 28.0000 77866.0000 2167.0731 77867.0000 46.8000 28.5085 821.8300 50.4333 -18.3986 -31.1327 -34.5105 49.9873 0.0162 -0.3281 -0.934 0.9901 -1.8962 1.191 2.9054 3.6682 359.6888 197.8789 222.6318 0.0000 LOW
2019-03-10 14:24:28 28.0000 77865.0000 2167.1762 77869.0000 46.8000 28.5467 821.8300 50.1766 -18.3961 -30.7783 -34.9753 50.0898 0.0175 -0.3259 -0.9328 0.9882 -3.1159 1.1918 2.5986 4.2287 359.9489 198.0957 222.5045 0.0000 LOW
2019-03-10 14:24:30 28.0000 77862.0000 2167.4853 77869.0000 28.0000 28.4512 778.6100 50.2285 -18.1269 -30.487 -34.1779 49.2562 0.0155 -0.3276 -0.9321 0.9881 -0.3645 -0.9456 1.3753 1.7084 359.9712 197.9915 222.7143 0.0000 LOW
2019-03-10 14:24:33 28.0000 77867.0000 2166.1457 77851.0000 28.0000 28.5085 778.6100 50.3355 -18.3287 -30.4095 -34.8057 49.7204 0.0162 -0.3281 -0.9347 0.9907 -3.721 -0.3342 1.0687 3.8858 359.9528 197.8414 222.4031 0.0000 LOW
2019-03-10 14:24:35 28.0000 77857.0000 2166.9701 77860.0000 46.8000 28.4703 821.7100 50.8918 -18.5845 -30.7244 -33.5155 49.1188 0.0167 -0.3271 -0.9313 0.9872 -0.9697 -1.2495 3.8151 4.1300 359.7689 197.5281 222.4159 0.0000 LOW
2019-03-10 14:24:37 28.0000 77862.0000 2166.7640 77862.0000 46.8000 28.6040 821.8300 50.3875 -18.2779 -31.0207 -33.9703 49.5010 0.0158 -0.3271 -0.9301 0.9861 -0.9679 -1.5541 1.6755 2.4818 359.9058 197.8337 222.3298 0.0000 LOW
2019-03-10 14:24:40 28.0000 77856.0000 2168.1036 77855.0000 46.8000 28.5085 821.8300 50.5067 -18.1601 -30.909 -33.6513 49.1687 0.0158 -0.3259 -0.9309 0.9864 -2.4928 -2.7754 1.3682 3.9735 359.724 198.0079 222.4579 0.0000 LOW
2019-03-10 14:24:42 28.0000 77860.0000 2166.8670 77870.0000 46.8000 28.5849 821.8300 50.2285 -18.0735 -31.3191 -34.4384 49.9354 0.0148 -0.3281 -0.9323 0.9885 -2.7961 0.2797 1.0614 3.0038 359.7808 197.9957 222.6391 0.0000 LOW
2019-03-10 14:24:44 28.0000 77859.0000 2166.6609 77864.0000 46.8000 28.5849 821.8600 50.3019 -18.3279 -30.9413 -34.3932 49.7611 0.0145 -0.3261 -0.9335 0.9889 -1.5714 1.5017 1.0601 2.4183 359.9117 197.8181 222.7494 0.0000 LOW
2019-03-10 14:24:47 28.0000 77866.0000 2166.6609 77871.0000 46.8000 28.4894 821.8600 50.3202 -17.9647 -31.2201 -33.6495 49.2921 0.0143 -0.3261 -0.9299 0.9855 0.5686 -0.0251 0.1418 0.5866 0.0201 198.0855 222.6226 0.0000 LOW
2019-03-10 14:24:49 28.0000 77867.0000 2166.9701 77871.0000 46.8000 28.4894 821.8300 50.4975 -18.1849 -30.6362 -33.8615 49.1515 0.0162 -0.3266 -0.9306 0.9864 -1.5671 0.8917 3.1946 3.6683 0.0149 198.1628 222.4574 0.0000 LOW
2019-03-10 14:24:51 28.0000 77861.0000 2167.2792 77862.0000 46.8000 28.5849 821.8300 50.5801 -18.5543 -31.0998 -34.0244 49.6902 0.0162 -0.3247 -0.9304 0.9856 -0.6482 -1.8568 2.2767 3.0085 359.7135 198.1498 222.7151 0.0000 LOW
2019-03-10 14:24:53 28.0000 77866.0000 2167.3823 77872.0000 46.8000 28.5849 821.8100 50.5587 -18.822 -30.6598 -33.2063 48.9586 0.016 -0.3276 -0.9287 0.9849 -1.5632 -0.024 1.0533 1.8851 359.753 198.3077 222.6994 0.0000 LOW
2019-03-10 14:24:56 28.0000 77866.0000 2166.7640 77868.0000 46.8000 28.4703 821.8100 50.4150 -18.1274 -30.6856 -33.8419 49.1476 0.0162 -0.3252 -0.9316 0.9869 -2.7829 0.8927 1.0521 3.1062 359.7002 198.445 222.4573 0.0000 LOW
2019-03-10 14:24:58 28.0000 77860.0000 2166.5579 77862.0000 46.8000 28.5276 821.7400 50.6015 -18.2809 -30.766 -32.9934 48.6755 0.0172 -0.3271 -0.9321 0.9880 -4.0023 -1.2446 2.577 4.9202 359.7883 198.2059 222.5457 0.0000 LOW
2019-03-10 14:25:00 28.0000 77867.0000 2167.0731 77860.0000 46.8000 28.4894 821.7400 50.3111 -18.2545 -30.4184 -33.9078 49.0739 0.0155 -0.3259 -0.9337 0.9891 -2.4735 0.2834 -0.1734 2.4957 359.6944 198.1906 222.5959 0.0000 LOW
2019-03-10 14:25:03 28.0000 77862.0000 2167.0731 77868.0000 46.8000 28.5467 821.7700 51.5918 -18.4292 -30.4869 -33.3879 48.8246 0.016 -0.3273 -0.9325 0.9884 -2.7775 -1.2427 1.9632 3.6212 359.9346 198.2728 222.4648 0.0000 LOW
2019-03-10 14:25:05 28.0000 77863.0000 2166.4549 77863.0000 46.8000 28.5658 821.7400 50.3539 -18.6217 -30.8068 -34.1334 49.6076 0.016 -0.3281 -0.9284 0.9848 -3.3859 -0.6314 2.2666 4.1232 0.0242 198.0049 222.4349 0.0000 LOW
2019-03-10 14:25:07 28.0000 77860.0000 2167.1762 77865.0000 46.8000 28.6040 821.7400 49.5928 -18.3524 -30.5664 -33.6228 49.0062 0.016 -0.3264 -0.9318 0.9874 -0.6352 -2.1578 0.433 2.2906 0.0633 198.1597 222.4081 0.0000 LOW
2019-03-10 14:25:10 28.0000 77869.0000 2166.1457 77867.0000 46.8000 28.5467 821.7400 50.1705 -18.2682 -30.7233 -34.031 49.3534 0.0162 -0.3254 -0.9333 0.9885 -1.2441 0.5917 0.1263 1.3834 359.9117 197.9544 222.4763 0.0000 LOW
2019-03-10 14:25:12 28.0000 77857.0000 2167.3823 77856.0000 46.8000 28.4894 821.6800 50.1827 -18.1439 -30.7102 -34.8178 49.8457 0.017 -0.3273 -0.9296 0.9857 -0.9362 1.5073 2.2635 2.8761 359.7019 198.0599 222.8949 0.0000 LOW
2019-03-10 14:25:14 28.0000 77865.0000 2167.3823 77862.0000 46.8000 28.5849 821.7100 50.0941 -18.1567 -30.464 -34.2086 49.2742 0.0153 -0.3269 -0.9323 0.9881 -1.5449 4.2555 1.9564 4.9319 359.856 198.0445 222.7934 0.0000 LOW
2019-03-10 14:25:17 28.0000 77863.0000 2167.0731 77859.0000 46.8000 28.5467 821.7100 50.4945 -17.8671 -30.0898 -33.74 48.6109 0.0199 -0.324 -0.9325 0.9874 -1.2382 3.0328 1.3439 3.5408 0.6966 197.2924 223.1201 0.0000 LOW
2019-03-10 14:25:19 28.0000 77866.0000 2166.8670 77867.0000 46.8000 28.6040 821.7100 50.1858 -18.069 -30.8185 -33.6104 49.0503 0.0148 -0.3247 -0.9309 0.9860 -1.8471 0.2834 1.3429 2.3012 0.2657 197.6748 223.0745 0.0000 LOW
2019-03-10 14:25:21 28.0000 77862.0000 2167.6914 77861.0000 46.8000 28.6230 821.7100 50.4303 -18.4135 -30.4026 -33.9399 49.1456 0.017 -0.3254 -0.9333 0.9885 -0.319 2.7263 0.7307 2.8405 0.1379 198.009 222.8561 0.0000 LOW
2019-03-10 14:25:24 28.0000 77863.0000 2167.2792 77868.0000 46.8000 28.5467 821.6800 50.3844 -17.7028 -30.0988 -33.9363 48.6929 0.0165 -0.3261 -0.9335 0.9890 -4.2875 -0.0219 2.2565 4.8451 0.1697 198.1268 223.0841 0.0000 LOW
2019-03-10 14:25:26 28.0000 77862.0000 2166.8670 77868.0000 46.8000 28.6040 821.6800 50.2683 -17.9698 -30.6675 -34.225 49.3433 0.0153 -0.3257 -0.9311 0.9865 -1.536 -1.5485 1.9493 2.9252 0.1252 198.0711 222.8867 0.0000 LOW
2019-03-10 14:25:28 28.0000 77857.0000 2167.3823 77871.0000 28.1000 28.5658 778.6500 50.5098 -18.1302 -31.1404 -33.9786 49.5275 0.0167 -0.3264 -0.9328 0.9884 -0.9229 0.8951 -1.4116 1.9093 0.0012 198.1438 222.8138 0.0000 LOW
2019-03-10 14:25:31 28.1000 77867.0000 2167.6914 77867.0000 28.1000 28.6230 778.6500 50.3539 -18.1134 -30.844 -33.609 49.0817 0.0167 -0.3269 -0.9299 0.9858 -2.4481 -0.6323 1.031 2.7306 359.8263 198.3698 222.9793 0.0000 LOW
2019-03-10 14:25:33 28.0000 77868.0000 2166.8670 77867.0000 46.8000 28.5849 821.6800 50.3080 -18.2207 -31.0834 -34.2353 49.7014 0.015 -0.3252 -0.9335 0.9886 -4.5837 0.2843 1.6402 4.8766 359.8711 198.0136 222.8356 0.0000 LOW
2019-03-10 14:25:35 28.0000 77867.0000 2167.5883 77868.0000 46.8000 28.5849 821.6800 50.2652 -17.9135 -30.9419 -33.876 49.2532 0.0158 -0.3261 -0.933 0.9885 -1.8334 0.2844 2.5549 3.1575 359.874 198.1362 222.7739 0.0000 LOW
2019-03-10 14:25:38 28.1000 77864.0000 2166.5579 77864.0000 46.8000 28.5658 821.6500 50.5556 -18.1338 -30.8934 -33.6281 49.1333 0.0148 -0.3264 -0.934 0.9895 -3.6635 0.5895 0.1114 3.7123 359.6793 198.1999 222.9924 0.0000 LOW
2019-03-10 14:25:40 28.1000 77868.0000 2166.0427 77864.0000 46.8000 28.5085 821.6500 50.5189 -18.2482 -30.2316 -33.8209 48.8958 0.0165 -0.3269 -0.9311 0.9870 -2.7446 -1.2429 1.3321 3.2943 359.5645 198.0361 222.6555 0.0000 LOW
2019-03-10 14:25:42 28.1000 77865.0000 2166.6609 77865.0000 46.8000 28.6040 821.6800 50.4272 -18.315 -31.003 -34.959 50.1872 0.0189 -0.3244 -0.9309 0.9860 0.9225 -3.0762 1.9408 3.7524 359.2169 197.7673 222.1554 0.0000 LOW
2019-03-10 14:25:45 28.1000 77864.0000 2167.1762 77869.0000 46.8000 28.6040 821.6800 50.8154 -18.2957 -30.7332 -34.555 49.7324 0.0187 -0.322 -0.9333 0.9875 2.1458 -0.3279 0.7173 2.2862 359.2882 197.9907 221.9716 0.0000 LOW
2019-03-10 14:25:47 28.1000 77862.0000 2167.7945 77867.0000 46.8000 28.6803 821.6800 50.2836 -18.0745 -30.4813 -34.1004 49.1796 0.0162 -0.322 -0.9328 0.9869 0.0089 -0.9373 1.9371 2.1520 359.505 197.9164 221.994 0.0000 LOW
2019-03-10 14:25:49 28.1000 77867.0000 2166.9701 77861.0000 46.8000 28.5467 821.6800 51.3412 -17.924 -30.6296 -34.1657 49.2619 0.0179 -0.3228 -0.9335 0.9879 0.3161 -0.0211 1.0195 1.0676 359.4283 197.9177 222.1559 0.0000 LOW
2019-03-10 14:25:52 28.1000 77864.0000 2166.8670 77869.0000 46.8000 28.6612 821.6600 50.9499 -18.0654 -30.7736 -33.8743 49.2020 0.0175 -0.323 -0.9347 0.9891 -2.431 0.2845 0.1013 2.4497 359.3412 197.991 222.2578 0.0000 LOW
2019-03-10 14:25:54 28.1000 77862.0000 2167.8975 77864.0000 46.8000 28.6040 821.6600 50.2408 -18.195 -29.8716 -34.0881 48.8402 0.0172 -0.3218 -0.9333 0.9874 -2.7324 -0.0212 0.7103 2.8233 359.188 197.67 222.0216 0.0000 LOW
2019-03-10 14:25:56 28.1000 77858.0000 2167.4853 77863.0000 46.8000 28.6040 821.5900 50.2255 -18.2638 -30.4052 -34.0938 49.1979 0.0131 -0.3261 -0.9301 0.9857 2.1554 1.2005 -2.6486 3.6197 359.6188 197.6638 222.268 0.0000 LOW
2019-03-10 14:25:59 28.1000 77870.0000 2166.4549 77868.0000 46.8000 28.6421 821.5900 51.0477 -18.2779 -30.9386 -34.1254 49.5562 0.0085 -0.324 -0.966 1.0189 -20.1429 3.9397 -8.1413 22.0803 356.3284 200.7373 222.5788 0.0000 LOW
2019-03-10 14:26:01 28.1000 77854.0000 2167.4853 77864.0000 46.8000 28.5658 821.5900 50.2316 -17.591 -30.7166 -34.6013 49.4995 -0.0039 -0.3225 -0.9082 0.9638 71.156 -33.6038 43.7684 90.0448 356.8316 198.0564 222.4266 0.0000 LOW
2019-03-10 14:26:03 28.1000 77863.0000 2167.3823 77869.0000 46.8000 28.5276 821.5900 50.7390 -17.547 -31.7798 -33.2026 49.1962 0.0179 -0.2955 -0.953 0.9979 58.0234 -27.4944 -20.3735 67.3627 344.6622 197.7403 221.8822 0.0000 LOW
2019-03-10 14:26:05 28.1000 77861.0000 2167.5883 77864.0000 46.8000 28.5849 821.6200 51.0263 -15.2075 -33.3322 -30.4763 47.6561 0.0041 -0.323 -0.8651 0.9234 28.6998 -0.9199 -3.2705 28.9002 347.7354 198.2918 224.758 0.0000 LOW
2019-03-10 14:26:08 28.1000 77867.0000 2166.9701 77865.0000 46.8000 28.6040 821.5900 50.8338 -15.5772 -34.1869 -29.4951 47.7635 0.0092 -0.3194 -0.9588 1.0106 -0.9233 10.9907 -8.1568 13.7179 353.6247 197.401 226.2755 0.0000 LOW
2019-03-10 14:26:10 28.1000 77870.0000 2166.5579 77871.0000 46.8000 28.6230 821.5900 50.4914 -16.0732 -34.468 -27.9024 47.1692 -0.0528 -0.3124 -0.9525 1.0038 -6.7241 0.299 4.0593 7.8601 354.8718 197.6113 227.5575 0.0000 LOW
2019-03-10 14:26:13 28.1000 77873.0000 2166.2488 77871.0000 28.1000 28.6421 778.6100 50.2530 -16.6926 -35.9938 -27.355 48.1922 -0.055 -0.3114 -0.9022 0.9560 -101.0996 -0.6185 0.3945 101.1023 3.5978 196.1865 222.4156 0.0000 LOW
2019-03-10 14:26:15 28.1000 77864.0000 2166.4549 77871.0000 28.1000 28.5658 821.5900 49.6661 -20.6301 -36.9025 -27.3812 50.3699 -0.0205 -0.3329 -0.9721 1.0277 -58.9128 35.6941 -7.5492 69.2949 3.3352 196.8038 226.0718 0.0000 LOW
2019-03-10 14:26:17 28.1000 77861.0000 2166.4549 77869.0000 46.8000 28.5849 821.5900 50.0268 -18.5216 -35.2122 -29.0023 49.2350 -0.018 -0.3339 -0.8096 0.8759 -119.073 40.2725 -0.2222 125.6993 2.4409 197.2723 227.1647 0.0000 LOW
2019-03-10 14:26:20 28.1000 77864.0000 2167.0731 77868.0000 28.1000 28.5467 778.6000 50.2102 -17.7492 -35.1332 -29.6926 49.3054 -0.0094 -0.3206 -0.8679 0.9253 -11.5588 -1.8773 3.441 12.2054 0.7829 198.2571 228.792 0.0000 LOW
2019-03-10 14:26:22 28.1000 77875.0000 2166.2488 77871.0000 28.1000 28.6994 821.6200 50.9927 -17.9264 -34.6022 -28.6215 48.3514 0.0041 -0.3105 -0.9255 0.9762 -21.6351 -4.3187 5.5776 22.7561 2.8629 199.0731 230.0089 0.0000 LOW
2019-03-10 14:26:24 28.1000 77868.0000 2165.9397 77872.0000 46.8000 28.6421 821.6200 50.3691 -18.2428 -33.8923 -30.3875 49.0397 0.007 -0.3891 -1.0721 1.1405 -95.246 -51.6607 7.715 108.6285 5.0619 204.9386 229.7029 0.0000 LOW
2019-03-10 14:26:27 28.1000 77871.0000 2166.8670 77876.0000 46.8000 28.5467 821.6200 49.6783 -19.4256 -32.2366 -32.8169 49.9350 -0.1901 -0.2325 -0.9482 0.9946 79.4519 45.1718 17.2026 93.0001 4.869 198.8307 264.9087 0.0000 LOW
2019-03-10 14:26:29 28.1000 77871.0000 2166.3518 77871.0000 46.8000 28.6421 821.6500 50.2652 -23.1095 -30.0189 -34.0662 50.9479 0.0058 -0.2772 -0.9511 0.9907 5.8443 -8.5817 4.9809 11.5157 3.1304 196.7732 254.655 0.0000 LOW
2019-03-10 14:26:31 28.1000 77865.0000 2166.0427 77871.0000 46.8000 28.6421 821.6500 50.0085 -23.4358 -29.9068 -34.2317 51.1416 0.0024 -0.2755 -0.947 0.9863 -1.4842 3.3308 2.2298 4.2742 2.7049 196.1453 246.623 0.0000 LOW
2019-03-10 14:26:34 28.1000 77869.0000 2166.4549 77876.0000 46.8000 28.6612 821.5900 50.5495 -23.5695 -30.4609 -34.846 51.9387 0.0032 -0.2791 -0.9482 0.9884 -0.5653 0.8873 2.8389 3.0276 2.3027 195.6603 240.6859 0.0000 LOW
2019-03-10 14:26:36 28.1000 77866.0000 2166.8670 77874.0000 46.8000 28.5467 821.5900 50.7818 -23.6308 -30.3457 -35.3037 52.2075 0.0044 -0.2798 -0.9521 0.9924 -4.8395 -0.6394 3.4482 5.9766 1.926 195.4789 235.8082 0.0000 LOW
2019-03-10 14:26:38 28.1000 77866.0000 2165.9397 77859.0000 46.8000 28.5849 821.4700 50.3478 -23.5392 -29.8335 -34.6485 51.4262 0.0027 -0.2784 -0.9506 0.9905 -0.2562 -0.0283 -0.5241 0.5841 1.3469 195.0832 231.663 0.0000 LOW
2019-03-10 14:26:40 28.1000 77865.0000 2166.6609 77859.0000 46.8000 28.6040 821.4700 50.3416 -23.8656 -30.2612 -34.6537 51.8284 0.0019 -0.2779 -0.946 0.9860 -4.2247 -2.4715 4.056 6.3567 1.125 195.1017 228.7688 0.0000 LOW
2019-03-10 14:26:43 28.1000 77857.0000 2166.9701 77858.0000 46.8000 28.6612 821.3800 50.3080 -23.5036 -30.5486 -35.1563 52.1690 0.0032 -0.2789 -0.9482 0.9884 -2.3896 -0.6383 0.0838 2.4748 1.0996 194.7749 226.8096 0.0000 LOW
2019-03-10 14:26:45 28.1000 77870.0000 2166.8670 77862.0000 46.8000 28.5849 821.3800 50.1705 -23.3035 -31.2251 -35.0422 52.4024 0.0051 -0.2781 -0.948 0.9880 -1.7765 -0.944 2.5258 3.2290 0.7927 194.718 225.2199 0.0000 LOW
2019-03-10 14:26:47 28.1000 77873.0000 2166.4549 77869.0000 46.8000 28.6230 821.4700 50.3569 -23.4732 -30.3593 -34.5864 51.6614 0.0024 -0.2786 -0.947 0.9871 -3.3014 -0.3321 2.8298 4.3609 0.7024 194.7152 224.0926 0.0000 LOW
2019-03-10 14:26:50 28.1000 77871.0000 2166.1457 77868.0000 46.8000 28.6421 821.4100 49.7945 -23.4011 -30.812 -35.0553 52.2098 0.0032 -0.2772 -0.9472 0.9869 -2.3827 0.8899 0.0792 2.5447 0.6873 194.6383 223.0379 0.0000 LOW
2019-03-10 14:26:52 28.1000 77869.0000 2166.3518 77866.0000 46.8000 28.5658 821.4100 50.1766 -23.2256 -30.6168 -34.5621 51.6852 0.0029 -0.2793 -0.9468 0.9871 -2.991 0.5848 0.0773 3.0486 0.7417 194.6285 222.1443 0.0000 LOW
2019-03-10 14:26:54 28.1000 77865.0000 2166.5579 77866.0000 28.1000 28.6994 778.5600 50.0513 -23.2888 -30.8389 -35.4338 52.4305 0.001 -0.2762 -0.9484 0.9878 -2.3777 -1.5524 3.1299 4.2261 0.8363 194.6773 221.5027 0.0000 LOW
2019-03-10 14:26:57 28.1000 77862.0000 2167.1762 77869.0000 28.1000 28.6612 778.5600 50.0421 -23.1808 -30.5299 -35.3068 52.1152 0.0015 -0.2781 -0.947 0.9870 -5.7354 -0.3301 2.5179 6.2724 0.7004 194.9204 221.127 0.0000 LOW
2019-03-10 14:26:59 28.1000 77859.0000 2166.4549 77868.0000 46.8000 28.6421 821.4400 49.8495 -23.2821 -30.5136 -35.5008 52.2823 0.0005 -0.2769 -0.9458 0.9855 -0.2352 -0.635 -0.8431 1.0814 0.5481 195.0079 221.0138 0.0000 LOW
2019-03-10 14:27:01 28.1000 77866.0000 2165.8366 77869.0000 46.8000 28.6612 821.4400 50.0482 -23.6542 -30.5092 -34.5144 51.7839 0.0015 -0.2772 -0.9497 0.9893 0.3778 -0.6342 0.9878 1.2332 0.5025 194.7863 220.6148 0.0000 LOW
2019-03-10 14:27:04 28.1000 77860.0000 2166.9701 77854.0000 46.8000 28.6230 821.3100 50.2744 -23.5714 -30.865 -33.9327 51.5722 0.0019 -0.2781 -0.9482 0.9881 -2.6748 2.7232 2.8174 4.7443 0.2699 194.745 220.5031 0.0000 LOW
2019-03-10 14:27:06 28.1000 77865.0000 2166.8670 77874.0000 46.8000 28.6230 821.5000 50.3967 -23.6459 -30.7813 -34.351 51.8325 0.0027 -0.2772 -0.9456 0.9854 -2.9784 -1.247 1.289 3.4767 0.0953 194.8705 220.2161 0.0000 LOW
2019-03-10 14:27:08 28.1000 77865.0000 2166.9701 77869.0000 46.8000 28.6421 821.5000 51.0080 -23.2317 -30.362 -34.9367 51.7893 0.0034 -0.2777 -0.948 0.9878 -1.7546 0.8912 -2.0712 2.8570 0.0621 194.9694 220.0879 0.0000 LOW
2019-03-10 14:27:11 28.1000 77868.0000 2166.2488 77875.0000 28.1000 28.6040 778.6200 50.3202 -23.3191 -30.6087 -34.9813 52.0035 0.001 -0.2784 -0.947 0.9871 -1.4473 -0.3308 -0.2399 1.5039 359.8867 194.9095 219.9281 0.0000 LOW
2019-03-10 14:27:13 28.1000 77866.0000 2166.1457 77868.0000 28.1000 28.7949 821.5100 50.1949 -23.3963 -30.7118 -34.707 51.9151 0.0024 -0.276 -0.9492 0.9885 -1.1397 -0.6357 3.4234 3.6637 0.0289 194.8045 219.7383 0.0000 LOW
2019-03-10 14:27:15 28.1000 77874.0000 2165.9397 77875.0000 46.8000 28.5849 821.5100 50.4608 -23.3415 -30.6753 -35.2865 52.2584 0.0022 -0.2789 -0.9475 0.9877 -0.8325 -0.941 3.1164 3.3601 359.887 194.817 219.6624 0.0000 LOW
2019-03-10 14:27:18 28.1000 77869.0000 2165.4245 77870.0000 46.8000 28.7376 821.5100 49.9932 -22.9017 -30.5068 -34.9269 51.7208 0.0039 -0.2772 -0.9477 0.9874 -1.1362 -1.551 0.9764 2.1564 0.3564 194.8018 219.3973 0.0000 LOW
2019-03-10 14:27:20 28.1000 77874.0000 2166.0427 77870.0000 46.8000 28.6803 821.4400 50.4333 -23.2827 -30.3567 -34.72 51.6633 0.0036 -0.2791 -0.9501 0.9903 -3.273 -0.0236 0.9746 3.4151 0.2699 194.9926 219.2548 0.0000 LOW
2019-03-10 14:27:22 28.1000 77868.0000 2167.3823 77866.0000 46.8000 28.6612 821.4100 50.0971 -23.6696 -30.3197 -34.8301 51.8909 0.0036 -0.2769 -0.9499 0.9894 -1.4395 0.8921 1.8899 2.5377 0.1568 195.3132 219.041 0.0000 LOW
2019-03-10 14:27:25 28.1000 77868.0000 2165.6306 77874.0000 46.7000 28.6994 821.4100 50.3325 -23.5089 -30.7447 -34.0913 51.5764 0.0024 -0.2798 -0.948 0.9884 0.6998 0.281 2.8052 2.9048 0.0885 195.2847 219.1807 0.0000 LOW
2019-03-10 14:27:27 28.1000 77863.0000 2166.1457 77868.0000 28.2000 28.5658 778.5800 49.5500 -23.0772 -30.3461 -34.5375 51.4420 0.0024 -0.2769 -0.9492 0.9888 -1.131 2.4191 1.2777 2.9604 0.1463 195.1766 219.4442 0.0000 LOW
2019-03-10 14:27:29 28.1000 77872.0000 2166.3518 77874.0000 28.2000 28.6803 821.4700 50.6167 -23.6213 -30.485 -34.3158 51.6224 0.0027 -0.2769 -0.9463 0.9860 -0.5183 -0.0244 1.8874 1.9574 0.0492 195.1109 219.3591 0.0000 LOW
2019-03-10 14:27:32 28.2000 77867.0000 2166.1457 77869.0000 46.8000 28.6230 821.4700 51.0997 -23.3669 -30.6945 -34.8281 51.9727 0.0019 -0.2805 -0.948 0.9886 0.0939 1.503 -0.2508 1.5267 0.0793 195.3351 219.5217 0.0000 LOW
2019-03-10 14:27:34 28.1000 77869.0000 2166.4549 77871.0000 46.8000 28.7758 821.4700 50.1307 -23.6746 -30.5248 -34.7281 51.9451 0.0029 -0.2764 -0.946 0.9856 -4.4855 0.2814 1.5805 4.7641 0.3805 195.1697 219.4789 0.0000 LOW
2019-03-10 14:27:36 28.1000 77863.0000 2166.6609 77861.0000 46.8000 28.6803 821.3500 49.8954 -23.98 -31.0896 -34.1742 52.0527 0.0017 -0.2767 -0.9482 0.9877 -2.6507 0.5872 1.5797 3.1411 0.2989 195.3702 219.3203 0.0000 LOW
2019-03-10 14:27:39 28.2000 77866.0000 2166.7640 77876.0000 46.8000 28.6040 821.3500 49.6233 -23.6167 -30.7672 -34.0953 51.6416 0.0041 -0.2791 -0.9494 0.9896 -0.8167 -0.3287 0.9676 1.3082 0.0336 195.2208 219.137 0.0000 LOW
2019-03-10 14:27:41 28.2000 77879.0000 2165.8366 77876.0000 46.8000 28.6803 821.4700 50.0941 -23.5983 -30.8956 -33.9199 51.5944 0.0039 -0.2781 -0.9492 0.9891 -2.3413 -1.2452 0.0501 2.6523 0.1722 195.2161 219.4841 0.0000 LOW
